<?xml version="1.0" encoding="utf-8"?>
<FHYResultOfFHYFloodSensorStation xmlns:xsd="http://www.w3.org/2001/XMLSchema" xmlns:xsi="http://www.w3.org/2001/XMLSchema-instance" xmlns="https://tempuri.org/">
  <UpdataTime>2023-04-17T10:28:32</UpdataTime>
  <Data>
    <FHYFloodSensorStation>
      <SensorUUID>d847c29f-18ce-4d82-9b90-b4306996a759</SensorUUID>
      <Operator>414</Operator>
      <CityCode>10010</CityCode>
      <TownCode>1001011</TownCode>
      <SensorName>豐稠村海豐</SensorName>
      <Address>明安宮旁</Address>
      <Point>
        <Latitude>23.4151</Latitude>
        <Longitude>120.28883</Longitude>
      </Point>
      <SensorType>壓力式</SensorType>
    </FHYFloodSensorStation>
    <FHYFloodSensorStation>
      <SensorUUID>ec552c65-dcae-44b4-9fef-31ec6bb146bd</SensorUUID>
      <Operator>415</Operator>
      <CityCode>67</CityCode>
      <TownCode>6701900</TownCode>
      <SensorName>大成路348號旁(編號253)</SensorName>
      <Address>大成路348號旁</Address>
      <Point>
        <Latitude>23.129639</Latitude>
        <Longitude>120.297139</Longitude>
      </Point>
      <SensorType>壓力式</SensorType>
    </FHYFloodSensorStation>
    <FHYFloodSensorStation>
      <SensorUUID>70fb0a03-7e68-48e8-bcf2-eb23b75221f2</SensorUUID>
      <Operator>404</Operator>
      <CityCode>68</CityCode>
      <TownCode>6800200</TownCode>
      <SensorName>中山東路四段普仁幹150A</SensorName>
      <Address>中山東路四段(電力普仁幹150A)</Address>
      <Point>
        <Latitude>24.935001</Latitude>
        <Longitude>121.258611</Longitude>
      </Point>
      <SensorType>壓力式</SensorType>
    </FHYFloodSensorStation>
    <FHYFloodSensorStation>
      <SensorUUID>3085a8d0-d041-4f68-b6e9-b86219054da9</SensorUUID>
      <Operator>403</Operator>
      <CityCode>65</CityCode>
      <TownCode>6501100</TownCode>
      <SensorName>南陽街車行地下道</SensorName>
      <Address>南陽街車行地下道</Address>
      <Point>
        <Latitude>25.06632</Latitude>
        <Longitude>121.62452</Longitude>
      </Point>
      <SensorType>壓力式</SensorType>
    </FHYFloodSensorStation>
    <FHYFloodSensorStation>
      <SensorUUID>ea8b91c0-685f-4094-9359-e7f7f7479686</SensorUUID>
      <Operator>408</Operator>
      <CityCode>66</CityCode>
      <TownCode>6600300</TownCode>
      <SensorName>信義南街(消防局第七大隊信義分隊)</SensorName>
      <Address>信義南街(消防局第七大隊信義分隊)</Address>
      <Point>
        <Latitude>24.131918</Latitude>
        <Longitude>120.684001</Longitude>
      </Point>
      <SensorType>壓力式</SensorType>
    </FHYFloodSensorStation>
    <FHYFloodSensorStation>
      <SensorUUID>ee2340a9-97c2-412e-b8a2-811a91c081d9</SensorUUID>
      <Operator>414</Operator>
      <CityCode>10010</CityCode>
      <TownCode>1001001</TownCode>
      <SensorName>港尾里港尾社區(CYC123)</SensorName>
      <Address>港尾里港尾社區</Address>
      <Point>
        <Latitude>23.4660487</Latitude>
        <Longitude>120.3636863</Longitude>
      </Point>
      <SensorType>壓力式</SensorType>
    </FHYFloodSensorStation>
    <FHYFloodSensorStation>
      <SensorUUID>9de1a82b-fffe-4462-a9ab-261fe1061a08</SensorUUID>
      <Operator>404</Operator>
      <CityCode>68</CityCode>
      <TownCode>6801000</TownCode>
      <SensorName>環南路-1</SensorName>
      <Address>環南路-1</Address>
      <Point>
        <Latitude>24.943675</Latitude>
        <Longitude>121.20986</Longitude>
      </Point>
      <SensorType>壓力式</SensorType>
    </FHYFloodSensorStation>
    <FHYFloodSensorStation>
      <SensorUUID>90a780c7-86d7-40c4-9bf2-e0517412f96a</SensorUUID>
      <Operator>408</Operator>
      <CityCode>66</CityCode>
      <TownCode>6602600</TownCode>
      <SensorName>本堂里樹仁六街</SensorName>
      <Address>本堂里樹仁六街43號</Address>
      <Point>
        <Latitude>24.061017</Latitude>
        <Longitude>120.695678</Longitude>
      </Point>
      <SensorType>壓力式</SensorType>
    </FHYFloodSensorStation>
    <FHYFloodSensorStation>
      <SensorUUID>4472aade-abf6-4f18-84ac-eb5356f5a99e</SensorUUID>
      <Operator>412</Operator>
      <CityCode>10009</CityCode>
      <TownCode>1000920</TownCode>
      <SensorName>順興村_順興路</SensorName>
      <Address>順興村_順興路34號</Address>
      <Point>
        <Latitude>23.556891</Latitude>
        <Longitude>120.206391</Longitude>
      </Point>
      <SensorType>壓力式</SensorType>
    </FHYFloodSensorStation>
    <FHYFloodSensorStation>
      <SensorUUID>cd4073a6-fae2-460f-8744-069c4a27271a</SensorUUID>
      <Operator>415</Operator>
      <CityCode>67</CityCode>
      <TownCode>6702000</TownCode>
      <SensorName>中山路與中山路13巷口(編號218)</SensorName>
      <Address>中山路13巷</Address>
      <Point>
        <Latitude>23.083893</Latitude>
        <Longitude>120.304623</Longitude>
      </Point>
      <SensorType>壓力式</SensorType>
    </FHYFloodSensorStation>
    <FHYFloodSensorStation>
      <SensorUUID>14f1b9da-a16b-41b6-ad67-8c5416fad538</SensorUUID>
      <Operator>404</Operator>
      <CityCode>68</CityCode>
      <TownCode>6800100</TownCode>
      <SensorName>大仁路50巷-1</SensorName>
      <Address>大仁路50巷-1</Address>
      <Point>
        <Latitude>24.9738</Latitude>
        <Longitude>121.324374</Longitude>
      </Point>
      <SensorType>壓力式</SensorType>
    </FHYFloodSensorStation>
    <FHYFloodSensorStation>
      <SensorUUID>fd495d06-b93e-4b76-9dea-2665f0232377</SensorUUID>
      <Operator>408</Operator>
      <CityCode>66</CityCode>
      <TownCode>6601700</TownCode>
      <SensorName>潭富二街2號</SensorName>
      <Address>潭富二街2號</Address>
      <Point>
        <Latitude>24.221408</Latitude>
        <Longitude>120.694102</Longitude>
      </Point>
      <SensorType>壓力式</SensorType>
    </FHYFloodSensorStation>
    <FHYFloodSensorStation>
      <SensorUUID>79b69521-816a-42ed-8924-a20ea06e2749</SensorUUID>
      <Operator>403</Operator>
      <CityCode>65</CityCode>
      <TownCode>6502300</TownCode>
      <SensorName>中山路一段268巷口</SensorName>
      <Address>中山路一段268巷口</Address>
      <Point>
        <Latitude>25.160675</Latitude>
        <Longitude>121.41462</Longitude>
      </Point>
      <SensorType>壓力式</SensorType>
    </FHYFloodSensorStation>
    <FHYFloodSensorStation>
      <SensorUUID>c049fcca-a99d-4dc8-a731-c330cf0d5ebc</SensorUUID>
      <Operator>417</Operator>
      <CityCode>64</CityCode>
      <TownCode>6400800</TownCode>
      <SensorName>河南路17巷</SensorName>
      <Address>河南路17巷</Address>
      <Point>
        <Latitude>22.62361</Latitude>
        <Longitude>120.32967</Longitude>
      </Point>
      <SensorType>壓力式</SensorType>
    </FHYFloodSensorStation>
    <FHYFloodSensorStation>
      <SensorUUID>249b3bbc-d1c4-4d08-bef2-ebdbacc9b913</SensorUUID>
      <Operator>415</Operator>
      <CityCode>67</CityCode>
      <TownCode>6701700</TownCode>
      <SensorName>北馬太興宮(編號119)</SensorName>
      <Address>北馬太興宮</Address>
      <Point>
        <Latitude>23.304127</Latitude>
        <Longitude>120.157999</Longitude>
      </Point>
      <SensorType>壓力式</SensorType>
    </FHYFloodSensorStation>
    <FHYFloodSensorStation>
      <SensorUUID>e6fbc99c-3e12-413a-b6a3-56b460701b28</SensorUUID>
      <Operator>411</Operator>
      <CityCode>10007</CityCode>
      <TownCode>1000710</TownCode>
      <SensorName>關聖堂</SensorName>
      <Address>東北里山腳路6段關聖堂</Address>
      <Point>
        <Latitude>23.977844</Latitude>
        <Longitude>120.5933</Longitude>
      </Point>
      <SensorType>壓力式</SensorType>
    </FHYFloodSensorStation>
    <FHYFloodSensorStation>
      <SensorUUID>d6adfd3f-0475-42bb-930a-791cac310343</SensorUUID>
      <Operator>420</Operator>
      <CityCode>10002</CityCode>
      <TownCode>1000203</TownCode>
      <SensorName>區界西路</SensorName>
      <Address>區界西路</Address>
      <Point>
        <Latitude>24.6477452</Latitude>
        <Longitude>121.8269607</Longitude>
      </Point>
      <SensorType>壓力式</SensorType>
    </FHYFloodSensorStation>
    <FHYFloodSensorStation>
      <SensorUUID>6ae8e148-70b4-4261-9f42-ff28002285fd</SensorUUID>
      <Operator>5</Operator>
      <CityCode>10020</CityCode>
      <TownCode>1002002</TownCode>
      <SensorName>西區紅瓦里重慶二街附近(108I003)</SensorName>
      <Address>紅瓦里重慶二街附近</Address>
      <Point>
        <Latitude>23.4598884</Latitude>
        <Longitude>120.43037</Longitude>
      </Point>
      <SensorType>壓力式</SensorType>
    </FHYFloodSensorStation>
    <FHYFloodSensorStation>
      <SensorUUID>02a9ad15-e300-4335-a618-65b8cf3f8c03</SensorUUID>
      <Operator>417</Operator>
      <CityCode>64</CityCode>
      <TownCode>6400500</TownCode>
      <SensorName>三民街與河北二路150巷交口</SensorName>
      <Address>三民街與河北二路150巷交口</Address>
      <Point>
        <Latitude>22.63575</Latitude>
        <Longitude>120.29228</Longitude>
      </Point>
      <SensorType>壓力式</SensorType>
    </FHYFloodSensorStation>
    <FHYFloodSensorStation>
      <SensorUUID>476133fc-7ebf-4327-9473-39fe0c2ecd23</SensorUUID>
      <Operator>405</Operator>
      <CityCode>10018</CityCode>
      <TownCode>1001802</TownCode>
      <SensorName>延平路三段399巷口</SensorName>
      <Address>延平路三段399巷口</Address>
      <Point>
        <Latitude>24.8360077</Latitude>
        <Longitude>120.9308163</Longitude>
      </Point>
      <SensorType>壓力式</SensorType>
    </FHYFloodSensorStation>
    <FHYFloodSensorStation>
      <SensorUUID>e57821a7-8080-46d3-b4ff-248b3c135239</SensorUUID>
      <Operator>9</Operator>
      <CityCode>10015</CityCode>
      <TownCode>1001513</TownCode>
      <SensorName>立山村山里一號橋右岸</SensorName>
      <Address>立山村山里一號橋右岸</Address>
      <Point>
        <Latitude>23.43092</Latitude>
        <Longitude>121.31311</Longitude>
      </Point>
      <SensorType>壓力式</SensorType>
    </FHYFloodSensorStation>
    <FHYFloodSensorStation>
      <SensorUUID>9d50f03c-30d9-453d-8235-99fd9ca272e2</SensorUUID>
      <Operator>407</Operator>
      <CityCode>10005</CityCode>
      <TownCode>1000503</TownCode>
      <SensorName>平元里通霄鎮立幼兒園</SensorName>
      <Address>平元里通霄鎮立幼兒園旁</Address>
      <Point>
        <Latitude>24.4859333</Latitude>
        <Longitude>120.6837416</Longitude>
      </Point>
      <SensorType>壓力式</SensorType>
    </FHYFloodSensorStation>
    <FHYFloodSensorStation>
      <SensorUUID>1d857277-26a9-4a85-a27e-166ddfc8d499</SensorUUID>
      <Operator>408</Operator>
      <CityCode>66</CityCode>
      <TownCode>6600100</TownCode>
      <SensorName>綠川里綠川水岸景觀步道(地下道)</SensorName>
      <Address>綠川里綠川水岸景觀步道</Address>
      <Point>
        <Latitude>24.1385594</Latitude>
        <Longitude>120.6839447</Longitude>
      </Point>
      <SensorType>壓力式</SensorType>
    </FHYFloodSensorStation>
    <FHYFloodSensorStation>
      <SensorUUID>85e46116-b7ca-4545-b816-097f9525350b</SensorUUID>
      <Operator>408</Operator>
      <CityCode>66</CityCode>
      <TownCode>6601700</TownCode>
      <SensorName>大豐路二段122巷16號</SensorName>
      <Address>大豐路二段122巷16號</Address>
      <Point>
        <Latitude>24.219482</Latitude>
        <Longitude>120.692964</Longitude>
      </Point>
      <SensorType>壓力式</SensorType>
    </FHYFloodSensorStation>
    <FHYFloodSensorStation>
      <SensorUUID>ed45a2f9-11b4-4909-9b94-01dc810c080a</SensorUUID>
      <Operator>415</Operator>
      <CityCode>67</CityCode>
      <TownCode>6703600</TownCode>
      <SensorName>安平路336巷7弄(編號148)</SensorName>
      <Address>安平路336巷7弄</Address>
      <Point>
        <Latitude>22.99857</Latitude>
        <Longitude>120.17726</Longitude>
      </Point>
      <SensorType>壓力式</SensorType>
    </FHYFloodSensorStation>
    <FHYFloodSensorStation>
      <SensorUUID>a6c6a2cd-2bdb-4e9d-ad40-9e4a3cf7a9e6</SensorUUID>
      <Operator>421</Operator>
      <CityCode>10015</CityCode>
      <TownCode>1001505</TownCode>
      <SensorName>中央路三段</SensorName>
      <Address>中央路三段</Address>
      <Point>
        <Latitude>23.981495</Latitude>
        <Longitude>121.584495</Longitude>
      </Point>
      <SensorType>壓力式</SensorType>
    </FHYFloodSensorStation>
    <FHYFloodSensorStation>
      <SensorUUID>c5963fec-e945-4412-ab75-9a42fb50ee1f</SensorUUID>
      <Operator>408</Operator>
      <CityCode>66</CityCode>
      <TownCode>6600900</TownCode>
      <SensorName>朴子街56號</SensorName>
      <Address>朴子街56號</Address>
      <Point>
        <Latitude>24.272463</Latitude>
        <Longitude>120.736133</Longitude>
      </Point>
      <SensorType>壓力式</SensorType>
    </FHYFloodSensorStation>
    <FHYFloodSensorStation>
      <SensorUUID>1cbb601d-91a4-47cb-90bb-2199c2b454ba</SensorUUID>
      <Operator>417</Operator>
      <CityCode>64</CityCode>
      <TownCode>6400500</TownCode>
      <SensorName>民族巷1之1號</SensorName>
      <Address>民族巷與建中路路口，大綠光大樓前轉角路燈桿</Address>
      <Point>
        <Latitude>22.646906</Latitude>
        <Longitude>120.315819</Longitude>
      </Point>
      <SensorType>壓力式</SensorType>
    </FHYFloodSensorStation>
    <FHYFloodSensorStation>
      <SensorUUID>b001a477-c938-42a6-b514-f26c8709bddf</SensorUUID>
      <Operator>420</Operator>
      <CityCode>10002</CityCode>
      <TownCode>1000201</TownCode>
      <SensorName>宜榮一中排旁</SensorName>
      <Address>宜榮一中排旁</Address>
      <Point>
        <Latitude>24.7362055</Latitude>
        <Longitude>121.7412749</Longitude>
      </Point>
      <SensorType>壓力式</SensorType>
    </FHYFloodSensorStation>
    <FHYFloodSensorStation>
      <SensorUUID>6abc3535-92ff-4243-aa78-a55baaa2a0ee</SensorUUID>
      <Operator>415</Operator>
      <CityCode>67</CityCode>
      <TownCode>6701300</TownCode>
      <SensorName>光華里新頭港社區(編號266)</SensorName>
      <Address>光華里新頭港社區</Address>
      <Point>
        <Latitude>23.2589</Latitude>
        <Longitude>120.1601</Longitude>
      </Point>
      <SensorType>壓力式</SensorType>
    </FHYFloodSensorStation>
    <FHYFloodSensorStation>
      <SensorUUID>5cba601f-600f-40e4-9773-76ae7c792a25</SensorUUID>
      <Operator>415</Operator>
      <CityCode>67</CityCode>
      <TownCode>6702800</TownCode>
      <SensorName>民生十一街(編號261)</SensorName>
      <Address>民生十一街</Address>
      <Point>
        <Latitude>22.957262</Latitude>
        <Longitude>120.280139</Longitude>
      </Point>
      <SensorType>壓力式</SensorType>
    </FHYFloodSensorStation>
    <FHYFloodSensorStation>
      <SensorUUID>2b587529-6514-4617-9e84-fc1b292e8ee2</SensorUUID>
      <Operator>405</Operator>
      <CityCode>10018</CityCode>
      <TownCode>1001802</TownCode>
      <SensorName>中清路一段與延平路三段392巷口</SensorName>
      <Address>中清路一段與延平路三段392巷口</Address>
      <Point>
        <Latitude>24.8359697</Latitude>
        <Longitude>120.9326529</Longitude>
      </Point>
      <SensorType>壓力式</SensorType>
    </FHYFloodSensorStation>
    <FHYFloodSensorStation>
      <SensorUUID>e4474416-8eb4-4b28-90eb-de8e9b4b944e</SensorUUID>
      <Operator>5</Operator>
      <CityCode>10010</CityCode>
      <TownCode>1001009</TownCode>
      <SensorName>港口村蚶子寮(108Q019)</SensorName>
      <Address>港口村蚶子寮</Address>
      <Point>
        <Latitude>23.5005855</Latitude>
        <Longitude>120.1813665</Longitude>
      </Point>
      <SensorType>壓力式</SensorType>
    </FHYFloodSensorStation>
    <FHYFloodSensorStation>
      <SensorUUID>7cde4421-14c7-4afe-8c58-eb2e4ed585c4</SensorUUID>
      <Operator>405</Operator>
      <CityCode>10018</CityCode>
      <TownCode>1001801</TownCode>
      <SensorName>慈雲路與埔頂路口</SensorName>
      <Address>慈雲路與埔頂路口</Address>
      <Point>
        <Latitude>24.7940807</Latitude>
        <Longitude>121.0129797</Longitude>
      </Point>
      <SensorType>壓力式</SensorType>
    </FHYFloodSensorStation>
    <FHYFloodSensorStation>
      <SensorUUID>8e9a1ddd-69bb-4d70-a50f-764e3c3b0b16</SensorUUID>
      <Operator>412</Operator>
      <CityCode>10009</CityCode>
      <TownCode>1000917</TownCode>
      <SensorName>下寮村_川琦紙業</SensorName>
      <Address>川琦紙業有限公司</Address>
      <Point>
        <Latitude>23.6116826</Latitude>
        <Longitude>120.3384548</Longitude>
      </Point>
      <SensorType>壓力式</SensorType>
    </FHYFloodSensorStation>
    <FHYFloodSensorStation>
      <SensorUUID>8681ff41-2244-4b86-a40c-5dd763b2cd3b</SensorUUID>
      <Operator>405</Operator>
      <CityCode>10018</CityCode>
      <TownCode>1001801</TownCode>
      <SensorName>全中興地下道</SensorName>
      <Address>全中興地下道</Address>
      <Point>
        <Latitude>24.811435</Latitude>
        <Longitude>120.989982</Longitude>
      </Point>
      <SensorType>壓力式</SensorType>
    </FHYFloodSensorStation>
    <FHYFloodSensorStation>
      <SensorUUID>e65fa49f-d65f-4f67-a2ea-d78eebeff0bf</SensorUUID>
      <Operator>419</Operator>
      <CityCode>10013</CityCode>
      <TownCode>1001320</TownCode>
      <SensorName>萬華村</SensorName>
      <Address>萬華村萬華路16號前</Address>
      <Point>
        <Latitude>22.46414</Latitude>
        <Longitude>120.5044</Longitude>
      </Point>
      <SensorType>壓力式</SensorType>
    </FHYFloodSensorStation>
    <FHYFloodSensorStation>
      <SensorUUID>cdc2d284-1ccc-466d-bbfd-231a915da65d</SensorUUID>
      <Operator>404</Operator>
      <CityCode>68</CityCode>
      <TownCode>6801100</TownCode>
      <SensorName>興福路</SensorName>
      <Address>興福路(台電桿號:社尾幹_6_B1022AD86)</Address>
      <Point>
        <Latitude>24.95819</Latitude>
        <Longitude>121.08844</Longitude>
      </Point>
      <SensorType>壓力式</SensorType>
    </FHYFloodSensorStation>
    <FHYFloodSensorStation>
      <SensorUUID>562740e2-91ce-401c-b9ae-8a0405d33f15</SensorUUID>
      <Operator>414</Operator>
      <CityCode>10010</CityCode>
      <TownCode>1001009</TownCode>
      <SensorName>東石鄉東石村東石市區(CYC110)</SensorName>
      <Address>東石村東石市區</Address>
      <Point>
        <Latitude>23.455063</Latitude>
        <Longitude>120.148889</Longitude>
      </Point>
      <SensorType>壓力式</SensorType>
    </FHYFloodSensorStation>
    <FHYFloodSensorStation>
      <SensorUUID>d8b3d6f0-756a-4e0a-9172-eab402d71489</SensorUUID>
      <Operator>404</Operator>
      <CityCode>68</CityCode>
      <TownCode>6800200</TownCode>
      <SensorName>中和路101~95號</SensorName>
      <Address>中和路101~95號之間</Address>
      <Point>
        <Latitude>24.954302</Latitude>
        <Longitude>121.226625</Longitude>
      </Point>
      <SensorType>壓力式</SensorType>
    </FHYFloodSensorStation>
    <FHYFloodSensorStation>
      <SensorUUID>5ad42433-ef67-4918-86ea-fbcc8886b19e</SensorUUID>
      <Operator>412</Operator>
      <CityCode>10009</CityCode>
      <TownCode>1000901</TownCode>
      <SensorName>榴中里_光復路75巷</SensorName>
      <Address>光復路75巷前電線桿</Address>
      <Point>
        <Latitude>23.72319999</Latitude>
        <Longitude>120.58678</Longitude>
      </Point>
      <SensorType>壓力式</SensorType>
    </FHYFloodSensorStation>
    <FHYFloodSensorStation>
      <SensorUUID>3309a861-9e87-4a0e-94fd-12dcdc37ffa0</SensorUUID>
      <Operator>408</Operator>
      <CityCode>66</CityCode>
      <TownCode>6602300</TownCode>
      <SensorName>夏田里中興排水</SensorName>
      <Address>夏田里中興排水</Address>
      <Point>
        <Latitude>24.090145</Latitude>
        <Longitude>120.654205</Longitude>
      </Point>
      <SensorType>壓力式</SensorType>
    </FHYFloodSensorStation>
    <FHYFloodSensorStation>
      <SensorUUID>daacc1bb-1f12-4d56-aed5-2c4fdd63a347</SensorUUID>
      <Operator>408</Operator>
      <CityCode>66</CityCode>
      <TownCode>6601600</TownCode>
      <SensorName>中山路1516號</SensorName>
      <Address>中山路1516號</Address>
      <Point>
        <Latitude>24.259239</Latitude>
        <Longitude>120.659562</Longitude>
      </Point>
      <SensorType>壓力式</SensorType>
    </FHYFloodSensorStation>
    <FHYFloodSensorStation>
      <SensorUUID>5b733591-1b36-4ccd-97f8-49b9737ae4a9</SensorUUID>
      <Operator>408</Operator>
      <CityCode>66</CityCode>
      <TownCode>6602800</TownCode>
      <SensorName>立仁里甲興路</SensorName>
      <Address>立仁里甲興路22號</Address>
      <Point>
        <Latitude>24.105592</Latitude>
        <Longitude>120.696908</Longitude>
      </Point>
      <SensorType>壓力式</SensorType>
    </FHYFloodSensorStation>
    <FHYFloodSensorStation>
      <SensorUUID>0cb5d9e2-1493-419a-ad9f-764cdc2c5763</SensorUUID>
      <Operator>413</Operator>
      <CityCode>10020</CityCode>
      <TownCode>1002001</TownCode>
      <SensorName>北門里長榮街與成仁街口</SensorName>
      <Address>長榮街與成仁街口</Address>
      <Point>
        <Latitude>23.483536</Latitude>
        <Longitude>120.4510043</Longitude>
      </Point>
      <SensorType>壓力式</SensorType>
    </FHYFloodSensorStation>
    <FHYFloodSensorStation>
      <SensorUUID>2a8ed768-a9ff-4622-bc7f-128ef835fa4e</SensorUUID>
      <Operator>414</Operator>
      <CityCode>10010</CityCode>
      <TownCode>1001003</TownCode>
      <SensorName>樹林里</SensorName>
      <Address>縣道161與170交會口</Address>
      <Point>
        <Latitude>23.41688</Latitude>
        <Longitude>120.21691</Longitude>
      </Point>
      <SensorType>壓力式</SensorType>
    </FHYFloodSensorStation>
    <FHYFloodSensorStation>
      <SensorUUID>dbf6f589-4958-4cf4-aa8b-adc323e37019</SensorUUID>
      <Operator>412</Operator>
      <CityCode>10009</CityCode>
      <TownCode>1000909</TownCode>
      <SensorName>麻園村活動中心</SensorName>
      <Address>麻園村_活動中心</Address>
      <Point>
        <Latitude>23.7732446</Latitude>
        <Longitude>120.534493</Longitude>
      </Point>
      <SensorType>壓力式</SensorType>
    </FHYFloodSensorStation>
    <FHYFloodSensorStation>
      <SensorUUID>5971aa36-8e19-4522-8be7-24b4af60b46a</SensorUUID>
      <Operator>404</Operator>
      <CityCode>68</CityCode>
      <TownCode>6800800</TownCode>
      <SensorName>建興街92巷</SensorName>
      <Address>福興里建興街92巷</Address>
      <Point>
        <Latitude>24.932001</Latitude>
        <Longitude>121.287746</Longitude>
      </Point>
      <SensorType>壓力式</SensorType>
    </FHYFloodSensorStation>
    <FHYFloodSensorStation>
      <SensorUUID>f9a2fc0e-13d2-4b91-a403-2d4a9e60dc0e</SensorUUID>
      <Operator>411</Operator>
      <CityCode>10007</CityCode>
      <TownCode>1000723</TownCode>
      <SensorName>漢寶村1</SensorName>
      <Address>芳漢路漢一段557巷</Address>
      <Point>
        <Latitude>24.006704</Latitude>
        <Longitude>120.37013</Longitude>
      </Point>
      <SensorType>壓力式</SensorType>
    </FHYFloodSensorStation>
    <FHYFloodSensorStation>
      <SensorUUID>a5c3a431-4aea-4574-ade8-416795751c38</SensorUUID>
      <Operator>408</Operator>
      <CityCode>66</CityCode>
      <TownCode>6602300</TownCode>
      <SensorName>五光路五堂巷217號</SensorName>
      <Address>五光路五堂巷217號</Address>
      <Point>
        <Latitude>24.094077</Latitude>
        <Longitude>120.651781</Longitude>
      </Point>
      <SensorType>壓力式</SensorType>
    </FHYFloodSensorStation>
    <FHYFloodSensorStation>
      <SensorUUID>d8c9df90-a377-48ab-9a90-06029efed623</SensorUUID>
      <Operator>414</Operator>
      <CityCode>10010</CityCode>
      <TownCode>1001011</TownCode>
      <SensorName>松竹村</SensorName>
      <Address>農田旁</Address>
      <Point>
        <Latitude>23.39764</Latitude>
        <Longitude>120.28908</Longitude>
      </Point>
      <SensorType>壓力式</SensorType>
    </FHYFloodSensorStation>
    <FHYFloodSensorStation>
      <SensorUUID>7fa97e1e-e587-4609-9c22-01f600748cef</SensorUUID>
      <Operator>404</Operator>
      <CityCode>68</CityCode>
      <TownCode>6800200</TownCode>
      <SensorName>崁頂路1421巷3號</SensorName>
      <Address>崁頂路1421巷3號</Address>
      <Point>
        <Latitude>24.953814</Latitude>
        <Longitude>121.266164</Longitude>
      </Point>
      <SensorType>壓力式</SensorType>
    </FHYFloodSensorStation>
    <FHYFloodSensorStation>
      <SensorUUID>f9df3ad0-3e1e-4620-ad3d-8ee0ebedae87</SensorUUID>
      <Operator>408</Operator>
      <CityCode>66</CityCode>
      <TownCode>6601900</TownCode>
      <SensorName>興中街231號前方</SensorName>
      <Address>興中街231號前方</Address>
      <Point>
        <Latitude>24.208769</Latitude>
        <Longitude>120.803133</Longitude>
      </Point>
      <SensorType>壓力式</SensorType>
    </FHYFloodSensorStation>
    <FHYFloodSensorStation>
      <SensorUUID>aab01b83-af9c-4138-b584-b22c43b29afe</SensorUUID>
      <Operator>9</Operator>
      <CityCode>10015</CityCode>
      <TownCode>1001504</TownCode>
      <SensorName>新城鄉嘉里村嘉里路157號</SensorName>
      <Address>嘉里村嘉里路157號</Address>
      <Point>
        <Latitude>24.02076</Latitude>
        <Longitude>121.60889</Longitude>
      </Point>
      <SensorType>壓力式</SensorType>
    </FHYFloodSensorStation>
    <FHYFloodSensorStation>
      <SensorUUID>3e481c87-4ee7-4e13-90e1-5b2ca569c2d7</SensorUUID>
      <Operator>412</Operator>
      <CityCode>10009</CityCode>
      <TownCode>1000920</TownCode>
      <SensorName>萬興村_鄰近牛挑灣大排農田</SensorName>
      <Address>萬興村</Address>
      <Point>
        <Latitude>23.5842305</Latitude>
        <Longitude>120.2217305</Longitude>
      </Point>
      <SensorType>壓力式</SensorType>
    </FHYFloodSensorStation>
    <FHYFloodSensorStation>
      <SensorUUID>feb2ec11-5d2e-4d1d-a9e3-fcc42a29585b</SensorUUID>
      <Operator>403</Operator>
      <CityCode>65</CityCode>
      <TownCode>6500200</TownCode>
      <SensorName>正義北路122號</SensorName>
      <Address>正義北路122號</Address>
      <Point>
        <Latitude>25.0654758</Latitude>
        <Longitude>121.4969511</Longitude>
      </Point>
      <SensorType>壓力式</SensorType>
    </FHYFloodSensorStation>
    <FHYFloodSensorStation>
      <SensorUUID>ede187f8-2fb9-40eb-90b2-f083d96739e4</SensorUUID>
      <Operator>403</Operator>
      <CityCode>65</CityCode>
      <TownCode>6500500</TownCode>
      <SensorName>幸福路834號</SensorName>
      <Address>幸福路834號</Address>
      <Point>
        <Latitude>25.049095</Latitude>
        <Longitude>121.44532</Longitude>
      </Point>
      <SensorType>壓力式</SensorType>
    </FHYFloodSensorStation>
    <FHYFloodSensorStation>
      <SensorUUID>c691296d-7278-40cc-958e-432a01661d86</SensorUUID>
      <Operator>408</Operator>
      <CityCode>66</CityCode>
      <TownCode>6601600</TownCode>
      <SensorName>神林路76號</SensorName>
      <Address>神林路76號</Address>
      <Point>
        <Latitude>24.251912</Latitude>
        <Longitude>120.658302</Longitude>
      </Point>
      <SensorType>壓力式</SensorType>
    </FHYFloodSensorStation>
    <FHYFloodSensorStation>
      <SensorUUID>e600405a-ee81-455e-a057-a10bc3ff0284</SensorUUID>
      <Operator>414</Operator>
      <CityCode>10010</CityCode>
      <TownCode>1001002</TownCode>
      <SensorName>朴子市新寮里新寮社區(CYC102)</SensorName>
      <Address>新寮里新寮社區</Address>
      <Point>
        <Latitude>23.45013</Latitude>
        <Longitude>120.24125</Longitude>
      </Point>
      <SensorType>壓力式</SensorType>
    </FHYFloodSensorStation>
    <FHYFloodSensorStation>
      <SensorUUID>ce9c2bb9-5bd3-4f0e-87c2-cd5f8dd2fa9f</SensorUUID>
      <Operator>414</Operator>
      <CityCode>10010</CityCode>
      <TownCode>1001006</TownCode>
      <SensorName>溪口鄉游東村</SensorName>
      <Address>游東村7號旁</Address>
      <Point>
        <Latitude>23.610409</Latitude>
        <Longitude>120.4002445</Longitude>
      </Point>
      <SensorType>壓力式</SensorType>
    </FHYFloodSensorStation>
    <FHYFloodSensorStation>
      <SensorUUID>761e00ac-91d7-410b-82e5-ff8980f9b65f</SensorUUID>
      <Operator>415</Operator>
      <CityCode>67</CityCode>
      <TownCode>6703300</TownCode>
      <SensorName>明興路1181巷95號旁農路(編號178)</SensorName>
      <Address>興農里明興路1181巷95號旁農路</Address>
      <Point>
        <Latitude>22.92824</Latitude>
        <Longitude>120.191729</Longitude>
      </Point>
      <SensorType>壓力式</SensorType>
    </FHYFloodSensorStation>
    <FHYFloodSensorStation>
      <SensorUUID>9c3775f0-22c3-4883-9e65-47d51ccc5198</SensorUUID>
      <Operator>407</Operator>
      <CityCode>10005</CityCode>
      <TownCode>1000508</TownCode>
      <SensorName>南湖村2</SensorName>
      <Address>南湖村</Address>
      <Point>
        <Latitude>24.3989861</Latitude>
        <Longitude>120.8676717</Longitude>
      </Point>
      <SensorType>壓力式</SensorType>
    </FHYFloodSensorStation>
    <FHYFloodSensorStation>
      <SensorUUID>21bd61b7-89fd-48da-85c3-e5e3b65cc3df</SensorUUID>
      <Operator>407</Operator>
      <CityCode>10005</CityCode>
      <TownCode>1000504</TownCode>
      <SensorName>聖福宮</SensorName>
      <Address>聖福宮</Address>
      <Point>
        <Latitude>24.6953146</Latitude>
        <Longitude>120.8728329</Longitude>
      </Point>
      <SensorType>壓力式</SensorType>
    </FHYFloodSensorStation>
    <FHYFloodSensorStation>
      <SensorUUID>deef21c8-aa2a-4304-9c73-506b6f61fade</SensorUUID>
      <Operator>411</Operator>
      <CityCode>10007</CityCode>
      <TownCode>1000708</TownCode>
      <SensorName>白沙村1</SensorName>
      <Address>白沙村彰員路三段與402巷交叉口</Address>
      <Point>
        <Latitude>24.0494431</Latitude>
        <Longitude>120.545645</Longitude>
      </Point>
      <SensorType>壓力式</SensorType>
    </FHYFloodSensorStation>
    <FHYFloodSensorStation>
      <SensorUUID>7e20025a-faa3-46d0-8fd5-4b1614458832</SensorUUID>
      <Operator>420</Operator>
      <CityCode>10002</CityCode>
      <TownCode>1000201</TownCode>
      <SensorName>縣民大道二段315巷</SensorName>
      <Address>縣民大道二段315巷</Address>
      <Point>
        <Latitude>24.7374885</Latitude>
        <Longitude>121.7737767</Longitude>
      </Point>
      <SensorType>壓力式</SensorType>
    </FHYFloodSensorStation>
    <FHYFloodSensorStation>
      <SensorUUID>af8d3ade-816c-4583-93d9-b6ddc0530b56</SensorUUID>
      <Operator>407</Operator>
      <CityCode>10005</CityCode>
      <TownCode>1000505</TownCode>
      <SensorName>後庄里文林路</SensorName>
      <Address>後庄里文林路三六巷六鄰21號</Address>
      <Point>
        <Latitude>24.6990674</Latitude>
        <Longitude>120.8900708</Longitude>
      </Point>
      <SensorType>壓力式</SensorType>
    </FHYFloodSensorStation>
    <FHYFloodSensorStation>
      <SensorUUID>f5435097-08d7-49f8-9c29-cbb3ccc15ac8</SensorUUID>
      <Operator>415</Operator>
      <CityCode>67</CityCode>
      <TownCode>6700800</TownCode>
      <SensorName>大吉里南174線14.4公里處(編號257)</SensorName>
      <Address>大吉里南174線14.4公里處</Address>
      <Point>
        <Latitude>23.234</Latitude>
        <Longitude>120.2304</Longitude>
      </Point>
      <SensorType>壓力式</SensorType>
    </FHYFloodSensorStation>
    <FHYFloodSensorStation>
      <SensorUUID>c565de83-91b8-4f78-ab5d-429a015eb39e</SensorUUID>
      <Operator>404</Operator>
      <CityCode>68</CityCode>
      <TownCode>6800800</TownCode>
      <SensorName>茄苳路91巷2號</SensorName>
      <Address>茄苳路91巷2號</Address>
      <Point>
        <Latitude>24.983533</Latitude>
        <Longitude>121.281172</Longitude>
      </Point>
      <SensorType>壓力式</SensorType>
    </FHYFloodSensorStation>
    <FHYFloodSensorStation>
      <SensorUUID>2f92e28a-0e35-4aee-b3c7-d441eb6162e8</SensorUUID>
      <Operator>415</Operator>
      <CityCode>67</CityCode>
      <TownCode>6703200</TownCode>
      <SensorName>裕農路987-1號前(編號24)</SensorName>
      <Address>裕農路987-1號前</Address>
      <Point>
        <Latitude>22.990664</Latitude>
        <Longitude>120.247453</Longitude>
      </Point>
      <SensorType>壓力式</SensorType>
    </FHYFloodSensorStation>
    <FHYFloodSensorStation>
      <SensorUUID>de459a22-e6ac-48a0-8a03-fba1af0e6c35</SensorUUID>
      <Operator>415</Operator>
      <CityCode>67</CityCode>
      <TownCode>6702800</TownCode>
      <SensorName>文化北二街(編號260)</SensorName>
      <Address>文化北二街</Address>
      <Point>
        <Latitude>22.973056</Latitude>
        <Longitude>120.288898</Longitude>
      </Point>
      <SensorType>壓力式</SensorType>
    </FHYFloodSensorStation>
    <FHYFloodSensorStation>
      <SensorUUID>53a6c11e-110c-4d36-8b51-8c155f9aaffc</SensorUUID>
      <Operator>408</Operator>
      <CityCode>66</CityCode>
      <TownCode>6600800</TownCode>
      <SensorName>軍功路二段196號</SensorName>
      <Address>軍功路二段196號</Address>
      <Point>
        <Latitude>24.180082</Latitude>
        <Longitude>120.7197298</Longitude>
      </Point>
      <SensorType>壓力式</SensorType>
    </FHYFloodSensorStation>
    <FHYFloodSensorStation>
      <SensorUUID>83e5c41e-4bd2-4737-8e50-93baa928bc16</SensorUUID>
      <Operator>415</Operator>
      <CityCode>67</CityCode>
      <TownCode>6701300</TownCode>
      <SensorName>中洲國小旁(編號79)</SensorName>
      <Address>中洲國小</Address>
      <Point>
        <Latitude>23.246893</Latitude>
        <Longitude>120.159798</Longitude>
      </Point>
      <SensorType>壓力式</SensorType>
    </FHYFloodSensorStation>
    <FHYFloodSensorStation>
      <SensorUUID>74f08eba-0e84-4d0f-b3a9-eb2a25412e2c</SensorUUID>
      <Operator>414</Operator>
      <CityCode>10010</CityCode>
      <TownCode>1001009</TownCode>
      <SensorName>東石鄉永屯村屯仔頭</SensorName>
      <Address>永靈宮附近</Address>
      <Point>
        <Latitude>23.46187</Latitude>
        <Longitude>120.17438</Longitude>
      </Point>
      <SensorType>壓力式</SensorType>
    </FHYFloodSensorStation>
    <FHYFloodSensorStation>
      <SensorUUID>2ddbb59e-a81a-4b88-b72f-f5447491b167</SensorUUID>
      <Operator>4</Operator>
      <CityCode>10007</CityCode>
      <TownCode>1000702</TownCode>
      <SensorName>顏厝排水</SensorName>
      <Address>埔崙里顏厝排水上游(台17線以南)</Address>
      <Point>
        <Latitude>24.0658</Latitude>
        <Longitude>120.4317</Longitude>
      </Point>
      <SensorType>壓力式</SensorType>
    </FHYFloodSensorStation>
    <FHYFloodSensorStation>
      <SensorUUID>2a297fed-f489-4990-99fa-0ceae199cb3a</SensorUUID>
      <Operator>408</Operator>
      <CityCode>66</CityCode>
      <TownCode>6602300</TownCode>
      <SensorName>東園里溪南路一段</SensorName>
      <Address>東園里溪南路一段460巷256號</Address>
      <Point>
        <Latitude>24.083029</Latitude>
        <Longitude>120.63995799999999</Longitude>
      </Point>
      <SensorType>壓力式</SensorType>
    </FHYFloodSensorStation>
    <FHYFloodSensorStation>
      <SensorUUID>ee574503-a054-4d1c-9aaf-b2726037672d</SensorUUID>
      <Operator>408</Operator>
      <CityCode>66</CityCode>
      <TownCode>6602700</TownCode>
      <SensorName>長龍路一段(一江橋)</SensorName>
      <Address>太平區長龍路一段(一江橋)</Address>
      <Point>
        <Latitude>24.131456</Latitude>
        <Longitude>120.737873</Longitude>
      </Point>
      <SensorType>壓力式</SensorType>
    </FHYFloodSensorStation>
    <FHYFloodSensorStation>
      <SensorUUID>8157b65e-0863-43e7-95db-f4894e14ea4a</SensorUUID>
      <Operator>417</Operator>
      <CityCode>64</CityCode>
      <TownCode>6400100</TownCode>
      <SensorName>七賢三路250號前</SensorName>
      <Address>七賢三路250號前</Address>
      <Point>
        <Latitude>22.630253</Latitude>
        <Longitude>120.284517</Longitude>
      </Point>
      <SensorType>壓力式</SensorType>
    </FHYFloodSensorStation>
    <FHYFloodSensorStation>
      <SensorUUID>4f387199-77b2-4f3d-ad87-3b08be4b49a7</SensorUUID>
      <Operator>412</Operator>
      <CityCode>10009</CityCode>
      <TownCode>1000919</TownCode>
      <SensorName>後厝村_宜梧國中</SensorName>
      <Address>後厝村_後厝48之1號</Address>
      <Point>
        <Latitude>23.547004</Latitude>
        <Longitude>120.19708</Longitude>
      </Point>
      <SensorType>壓力式</SensorType>
    </FHYFloodSensorStation>
    <FHYFloodSensorStation>
      <SensorUUID>9ccbe60c-9ad2-4738-8bca-285afd3f6e21</SensorUUID>
      <Operator>420</Operator>
      <CityCode>10002</CityCode>
      <TownCode>1000208</TownCode>
      <SensorName>富堵五路</SensorName>
      <Address>富堵五路</Address>
      <Point>
        <Latitude>24.6603783</Latitude>
        <Longitude>121.8043873</Longitude>
      </Point>
      <SensorType>壓力式</SensorType>
    </FHYFloodSensorStation>
    <FHYFloodSensorStation>
      <SensorUUID>6b428b02-f066-4642-8a26-5fb4098d6743</SensorUUID>
      <Operator>7</Operator>
      <CityCode>10013</CityCode>
      <TownCode>1001319</TownCode>
      <SensorName>林邊郵局</SensorName>
      <Address>中山路116號</Address>
      <Point>
        <Latitude>22.43345</Latitude>
        <Longitude>120.51623</Longitude>
      </Point>
      <SensorType>壓力式</SensorType>
    </FHYFloodSensorStation>
    <FHYFloodSensorStation>
      <SensorUUID>e299cce0-dcad-4ab4-8add-a5e3ad347811</SensorUUID>
      <Operator>411</Operator>
      <CityCode>10007</CityCode>
      <TownCode>1000701</TownCode>
      <SensorName>中山里1</SensorName>
      <Address>中山里中山路二段614號</Address>
      <Point>
        <Latitude>24.0805114</Latitude>
        <Longitude>120.5456109</Longitude>
      </Point>
      <SensorType>壓力式</SensorType>
    </FHYFloodSensorStation>
    <FHYFloodSensorStation>
      <SensorUUID>069cfe4e-bab5-472c-bcbf-80bdde8b7cea</SensorUUID>
      <Operator>414</Operator>
      <CityCode>10010</CityCode>
      <TownCode>1001012</TownCode>
      <SensorName>水上鄉溪洲村外溪洲社區(CYC125)</SensorName>
      <Address>溪洲村外溪洲社區</Address>
      <Point>
        <Latitude>23.417622</Latitude>
        <Longitude>120.395638</Longitude>
      </Point>
      <SensorType>壓力式</SensorType>
    </FHYFloodSensorStation>
    <FHYFloodSensorStation>
      <SensorUUID>dd8acf38-d154-4f9c-89b8-1a1e61b52f90</SensorUUID>
      <Operator>406</Operator>
      <CityCode>10004</CityCode>
      <TownCode>1000401</TownCode>
      <SensorName>興隆路一段199號</SensorName>
      <Address>興隆路一段199號</Address>
      <Point>
        <Latitude>24.824244</Latitude>
        <Longitude>121.000289</Longitude>
      </Point>
      <SensorType>壓力式</SensorType>
    </FHYFloodSensorStation>
    <FHYFloodSensorStation>
      <SensorUUID>1b6a9cec-716a-4470-a6d5-741a63c99b97</SensorUUID>
      <Operator>415</Operator>
      <CityCode>67</CityCode>
      <TownCode>6702700</TownCode>
      <SensorName>文華一街93號斜對面(編號248)</SensorName>
      <Address>文華一街93號斜對面(醫專幹編號41)</Address>
      <Point>
        <Latitude>22.960808</Latitude>
        <Longitude>120.243068</Longitude>
      </Point>
      <SensorType>壓力式</SensorType>
    </FHYFloodSensorStation>
    <FHYFloodSensorStation>
      <SensorUUID>75955b3a-0ea0-4be9-aec9-46672127640e</SensorUUID>
      <Operator>417</Operator>
      <CityCode>64</CityCode>
      <TownCode>6400400</TownCode>
      <SensorName>右昌街與中泰街交叉口</SensorName>
      <Address>右昌街與中泰街交叉口</Address>
      <Point>
        <Latitude>22.71734</Latitude>
        <Longitude>120.28637</Longitude>
      </Point>
      <SensorType>壓力式</SensorType>
    </FHYFloodSensorStation>
    <FHYFloodSensorStation>
      <SensorUUID>c184ad51-10e4-48aa-8885-6e9e80061654</SensorUUID>
      <Operator>412</Operator>
      <CityCode>10009</CityCode>
      <TownCode>1000917</TownCode>
      <SensorName>龍岩村_無名早餐店</SensorName>
      <Address>無名早餐店</Address>
      <Point>
        <Latitude>23.6228553</Latitude>
        <Longitude>120.318598</Longitude>
      </Point>
      <SensorType>壓力式</SensorType>
    </FHYFloodSensorStation>
    <FHYFloodSensorStation>
      <SensorUUID>22d5cda9-240e-431c-bbc5-990045662c48</SensorUUID>
      <Operator>417</Operator>
      <CityCode>64</CityCode>
      <TownCode>6403100</TownCode>
      <SensorName>泰安路228號(泰正橋右岸)</SensorName>
      <Address>泰安路249巷近泰安路之台電電線桿</Address>
      <Point>
        <Latitude>22.903081</Latitude>
        <Longitude>120.543442</Longitude>
      </Point>
      <SensorType>壓力式</SensorType>
    </FHYFloodSensorStation>
    <FHYFloodSensorStation>
      <SensorUUID>58d00c57-668f-4d58-b787-7fce835f7c93</SensorUUID>
      <Operator>414</Operator>
      <CityCode>10010</CityCode>
      <TownCode>1001005</TownCode>
      <SensorName>民雄鄉文隆村表藝中心(CYC141)</SensorName>
      <Address>文隆村表藝中心</Address>
      <Point>
        <Latitude>23.542954</Latitude>
        <Longitude>120.433061</Longitude>
      </Point>
      <SensorType>壓力式</SensorType>
    </FHYFloodSensorStation>
    <FHYFloodSensorStation>
      <SensorUUID>d57ba865-a8ee-4e52-b3f2-987f32a381c4</SensorUUID>
      <Operator>415</Operator>
      <CityCode>67</CityCode>
      <TownCode>6701000</TownCode>
      <SensorName>區道南119線(編號173)</SensorName>
      <Address>區道南119線</Address>
      <Point>
        <Latitude>23.186274</Latitude>
        <Longitude>120.353557</Longitude>
      </Point>
      <SensorType>壓力式</SensorType>
    </FHYFloodSensorStation>
    <FHYFloodSensorStation>
      <SensorUUID>fb893f77-a7e0-4a41-8cdf-f28477e51a1e</SensorUUID>
      <Operator>415</Operator>
      <CityCode>67</CityCode>
      <TownCode>6702700</TownCode>
      <SensorName>新田里-263992路燈旁(編號249)</SensorName>
      <Address>新田里-263992路燈旁</Address>
      <Point>
        <Latitude>22.954489</Latitude>
        <Longitude>120.256086</Longitude>
      </Point>
      <SensorType>壓力式</SensorType>
    </FHYFloodSensorStation>
    <FHYFloodSensorStation>
      <SensorUUID>6211e1c2-5e15-4944-86fa-5f0ddc1d7448</SensorUUID>
      <Operator>408</Operator>
      <CityCode>66</CityCode>
      <TownCode>6600800</TownCode>
      <SensorName>東山路一段18號</SensorName>
      <Address>東山路一段18號</Address>
      <Point>
        <Latitude>24.170178</Latitude>
        <Longitude>120.698741</Longitude>
      </Point>
      <SensorType>壓力式</SensorType>
    </FHYFloodSensorStation>
    <FHYFloodSensorStation>
      <SensorUUID>60ecae38-f251-49a9-b62a-4c5c281fb226</SensorUUID>
      <Operator>415</Operator>
      <CityCode>67</CityCode>
      <TownCode>6703300</TownCode>
      <SensorName>中華南路二段233巷142號前(編號51)</SensorName>
      <Address>中華南路二段233巷142號前</Address>
      <Point>
        <Latitude>22.957573</Latitude>
        <Longitude>120.190948</Longitude>
      </Point>
      <SensorType>壓力式</SensorType>
    </FHYFloodSensorStation>
    <FHYFloodSensorStation>
      <SensorUUID>39749499-9c7e-42af-9a00-f12f28580e36</SensorUUID>
      <Operator>5</Operator>
      <CityCode>10009</CityCode>
      <TownCode>1000917</TownCode>
      <SensorName>元長瓦磘村瓦磘厝(107P005)</SensorName>
      <Address>雲林縣元長鄉中央路74號</Address>
      <Point>
        <Latitude>23.639766</Latitude>
        <Longitude>120.357751</Longitude>
      </Point>
      <SensorType>超音波式</SensorType>
    </FHYFloodSensorStation>
    <FHYFloodSensorStation>
      <SensorUUID>fb860ed6-f4b8-470b-a070-8b39f06e5340</SensorUUID>
      <Operator>411</Operator>
      <CityCode>10007</CityCode>
      <TownCode>1000716</TownCode>
      <SensorName>五福村1</SensorName>
      <Address>五福村中山路一段241巷2-1號</Address>
      <Point>
        <Latitude>23.909185</Latitude>
        <Longitude>120.541385</Longitude>
      </Point>
      <SensorType>壓力式</SensorType>
    </FHYFloodSensorStation>
    <FHYFloodSensorStation>
      <SensorUUID>e37094f9-abb1-48c8-984b-7ff2d2cd0606</SensorUUID>
      <Operator>420</Operator>
      <CityCode>10002</CityCode>
      <TownCode>1000208</TownCode>
      <SensorName>富農路二段</SensorName>
      <Address>富農路二段</Address>
      <Point>
        <Latitude>24.6559832</Latitude>
        <Longitude>121.7972016</Longitude>
      </Point>
      <SensorType>壓力式</SensorType>
    </FHYFloodSensorStation>
    <FHYFloodSensorStation>
      <SensorUUID>f2acdd4e-c6d5-4c54-ba70-11f74b31fb12</SensorUUID>
      <Operator>417</Operator>
      <CityCode>64</CityCode>
      <TownCode>6402800</TownCode>
      <SensorName>舊港路西一巷22號前</SensorName>
      <Address>舊港路西一巷22號前，電線桿</Address>
      <Point>
        <Latitude>22.798703</Latitude>
        <Longitude>120.230108</Longitude>
      </Point>
      <SensorType>壓力式</SensorType>
    </FHYFloodSensorStation>
    <FHYFloodSensorStation>
      <SensorUUID>93569385-2f33-4ab9-8985-92f41e1d6248</SensorUUID>
      <Operator>403</Operator>
      <CityCode>65</CityCode>
      <TownCode>6500500</TownCode>
      <SensorName>新泰路82號</SensorName>
      <Address>新泰路82號</Address>
      <Point>
        <Latitude>25.03555</Latitude>
        <Longitude>121.44887</Longitude>
      </Point>
      <SensorType>壓力式</SensorType>
    </FHYFloodSensorStation>
    <FHYFloodSensorStation>
      <SensorUUID>057c1dfa-e874-4a70-b8c1-f2acb1402485</SensorUUID>
      <Operator>408</Operator>
      <CityCode>66</CityCode>
      <TownCode>6600600</TownCode>
      <SensorName>港尾里同志巷</SensorName>
      <Address>港尾里同志巷內</Address>
      <Point>
        <Latitude>24.201563</Latitude>
        <Longitude>120.657203</Longitude>
      </Point>
      <SensorType>壓力式</SensorType>
    </FHYFloodSensorStation>
    <FHYFloodSensorStation>
      <SensorUUID>a48de841-a37b-4168-a197-85103702095e</SensorUUID>
      <Operator>420</Operator>
      <CityCode>10002</CityCode>
      <TownCode>1000203</TownCode>
      <SensorName>福德路</SensorName>
      <Address>福德路</Address>
      <Point>
        <Latitude>24.6414149</Latitude>
        <Longitude>121.8309277</Longitude>
      </Point>
      <SensorType>壓力式</SensorType>
    </FHYFloodSensorStation>
    <FHYFloodSensorStation>
      <SensorUUID>b722db26-0002-4de8-9ee4-0b67db13fa9f</SensorUUID>
      <Operator>403</Operator>
      <CityCode>65</CityCode>
      <TownCode>6500100</TownCode>
      <SensorName>新北市政府(中山路一段158號)</SensorName>
      <Address>中山路一段158號</Address>
      <Point>
        <Latitude>25.01201</Latitude>
        <Longitude>121.46601</Longitude>
      </Point>
      <SensorType>壓力式</SensorType>
    </FHYFloodSensorStation>
    <FHYFloodSensorStation>
      <SensorUUID>b38a9c31-4c33-462a-97b5-1f730fa83c9a</SensorUUID>
      <Operator>408</Operator>
      <CityCode>66</CityCode>
      <TownCode>6601300</TownCode>
      <SensorName>南勢里南斗路</SensorName>
      <Address>南勢里南斗路13巷5號</Address>
      <Point>
        <Latitude>24.2167478</Latitude>
        <Longitude>120.5698328</Longitude>
      </Point>
      <SensorType>壓力式</SensorType>
    </FHYFloodSensorStation>
    <FHYFloodSensorStation>
      <SensorUUID>1de1a12d-3bbb-44d6-a9f2-642c5b2cf564</SensorUUID>
      <Operator>5</Operator>
      <CityCode>10010</CityCode>
      <TownCode>1001001</TownCode>
      <SensorName>魚寮保安宮三山國王(108Q057)</SensorName>
      <Address>魚寮保安宮三山國王</Address>
      <Point>
        <Latitude>23.4816672</Latitude>
        <Longitude>120.3552863</Longitude>
      </Point>
      <SensorType>壓力式</SensorType>
    </FHYFloodSensorStation>
    <FHYFloodSensorStation>
      <SensorUUID>8665c08d-dd21-45e1-bcb1-9426ada3aab3</SensorUUID>
      <Operator>420</Operator>
      <CityCode>10002</CityCode>
      <TownCode>1000209</TownCode>
      <SensorName>五福橋</SensorName>
      <Address>五福橋</Address>
      <Point>
        <Latitude>24.6610428</Latitude>
        <Longitude>121.8191388</Longitude>
      </Point>
      <SensorType>壓力式</SensorType>
    </FHYFloodSensorStation>
    <FHYFloodSensorStation>
      <SensorUUID>5941cf6b-535b-4260-a470-06cf3eed3945</SensorUUID>
      <Operator>408</Operator>
      <CityCode>66</CityCode>
      <TownCode>6601700</TownCode>
      <SensorName>仁愛路二段216號</SensorName>
      <Address>仁愛路二段216號</Address>
      <Point>
        <Latitude>24.21522</Latitude>
        <Longitude>120.709939</Longitude>
      </Point>
      <SensorType>壓力式</SensorType>
    </FHYFloodSensorStation>
    <FHYFloodSensorStation>
      <SensorUUID>74c7234f-fdf1-4166-9da7-60d0055204da</SensorUUID>
      <Operator>405</Operator>
      <CityCode>10018</CityCode>
      <TownCode>1001801</TownCode>
      <SensorName>西大地下道</SensorName>
      <Address>西大地下道</Address>
      <Point>
        <Latitude>24.7990388</Latitude>
        <Longitude>120.9679736</Longitude>
      </Point>
      <SensorType>壓力式</SensorType>
    </FHYFloodSensorStation>
    <FHYFloodSensorStation>
      <SensorUUID>17d5b558-de5d-4cfb-99a0-6bc580511543</SensorUUID>
      <Operator>403</Operator>
      <CityCode>65</CityCode>
      <TownCode>6502300</TownCode>
      <SensorName>龍米路2段168號</SensorName>
      <Address>龍米路2段168號</Address>
      <Point>
        <Latitude>25.158096</Latitude>
        <Longitude>121.434818</Longitude>
      </Point>
      <SensorType>壓力式</SensorType>
    </FHYFloodSensorStation>
    <FHYFloodSensorStation>
      <SensorUUID>ea4f9a49-a832-46f3-8a0a-361f7d267ad5</SensorUUID>
      <Operator>5</Operator>
      <CityCode>10010</CityCode>
      <TownCode>1001002</TownCode>
      <SensorName>朴子市崁前里竹村國小(108Q067)</SensorName>
      <Address>崁前里竹村國小</Address>
      <Point>
        <Latitude>23.4411489</Latitude>
        <Longitude>120.2357852</Longitude>
      </Point>
      <SensorType>壓力式</SensorType>
    </FHYFloodSensorStation>
    <FHYFloodSensorStation>
      <SensorUUID>3f35a99f-c39c-4964-afe7-b0d5c87f5afb</SensorUUID>
      <Operator>408</Operator>
      <CityCode>66</CityCode>
      <TownCode>6602300</TownCode>
      <SensorName>南榮路48號(涵洞)</SensorName>
      <Address>南榮路48號</Address>
      <Point>
        <Latitude>24.112892</Latitude>
        <Longitude>120.584202</Longitude>
      </Point>
      <SensorType>壓力式</SensorType>
    </FHYFloodSensorStation>
    <FHYFloodSensorStation>
      <SensorUUID>2498464b-e5f5-4199-8201-6841f3255dc7</SensorUUID>
      <Operator>7</Operator>
      <CityCode>10013</CityCode>
      <TownCode>1001316</TownCode>
      <SensorName>隆安幼兒園</SensorName>
      <Address>隆安路170號</Address>
      <Point>
        <Latitude>22.36268</Latitude>
        <Longitude>120.60444</Longitude>
      </Point>
      <SensorType>壓力式</SensorType>
    </FHYFloodSensorStation>
    <FHYFloodSensorStation>
      <SensorUUID>69792558-dc53-4ae1-bed1-b93db8e475ec</SensorUUID>
      <Operator>420</Operator>
      <CityCode>10002</CityCode>
      <TownCode>1000201</TownCode>
      <SensorName>環市東路一段586巷</SensorName>
      <Address>環市東路一段586巷</Address>
      <Point>
        <Latitude>24.7365739</Latitude>
        <Longitude>121.7733829</Longitude>
      </Point>
      <SensorType>壓力式</SensorType>
    </FHYFloodSensorStation>
    <FHYFloodSensorStation>
      <SensorUUID>192edb68-efd1-4729-9c2b-3a4dd4e2451c</SensorUUID>
      <Operator>408</Operator>
      <CityCode>66</CityCode>
      <TownCode>6600800</TownCode>
      <SensorName>東山路一段219-5號</SensorName>
      <Address>東山路一段219-5號</Address>
      <Point>
        <Latitude>24.1738432</Latitude>
        <Longitude>120.7144197</Longitude>
      </Point>
      <SensorType>壓力式</SensorType>
    </FHYFloodSensorStation>
    <FHYFloodSensorStation>
      <SensorUUID>0ca55f34-0087-4921-99bf-c023782b7ed1</SensorUUID>
      <Operator>5</Operator>
      <CityCode>10009</CityCode>
      <TownCode>1000918</TownCode>
      <SensorName>四湖廣溝村和天宮(108P034)</SensorName>
      <Address>廣溝村和天宮</Address>
      <Point>
        <Latitude>23.6386803</Latitude>
        <Longitude>120.1540166</Longitude>
      </Point>
      <SensorType>壓力式</SensorType>
    </FHYFloodSensorStation>
    <FHYFloodSensorStation>
      <SensorUUID>5eb0dbf5-b499-435f-b342-880f901c2366</SensorUUID>
      <Operator>9</Operator>
      <CityCode>10015</CityCode>
      <TownCode>1001506</TownCode>
      <SensorName>共和村退輔會農場旁水尺</SensorName>
      <Address>共和村退輔會農場旁水尺</Address>
      <Point>
        <Latitude>23.87166</Latitude>
        <Longitude>121.51474</Longitude>
      </Point>
      <SensorType>壓力式</SensorType>
    </FHYFloodSensorStation>
    <FHYFloodSensorStation>
      <SensorUUID>b9509429-f7b3-4e1b-a35c-fb1998692168</SensorUUID>
      <Operator>6</Operator>
      <CityCode>67</CityCode>
      <TownCode>6702600</TownCode>
      <SensorName>光和里</SensorName>
      <Address>光和里平和橋旁巷內電桿</Address>
      <Point>
        <Latitude>23.06714</Latitude>
        <Longitude>120.37988</Longitude>
      </Point>
      <SensorType>壓力式</SensorType>
    </FHYFloodSensorStation>
    <FHYFloodSensorStation>
      <SensorUUID>d57a430a-ddf2-4f44-bfd5-0fcbc2890906</SensorUUID>
      <Operator>414</Operator>
      <CityCode>10010</CityCode>
      <TownCode>1001006</TownCode>
      <SensorName>溪口鄉林腳村</SensorName>
      <Address>林腳村嘉85</Address>
      <Point>
        <Latitude>23.59846</Latitude>
        <Longitude>120.36885</Longitude>
      </Point>
      <SensorType>壓力式</SensorType>
    </FHYFloodSensorStation>
    <FHYFloodSensorStation>
      <SensorUUID>8c4e0696-6993-45ef-8f58-f8c5d626cad0</SensorUUID>
      <Operator>403</Operator>
      <CityCode>65</CityCode>
      <TownCode>6500800</TownCode>
      <SensorName>高職西街19號</SensorName>
      <Address>高職西街19號</Address>
      <Point>
        <Latitude>24.94252</Latitude>
        <Longitude>121.337541</Longitude>
      </Point>
      <SensorType>壓力式</SensorType>
    </FHYFloodSensorStation>
    <FHYFloodSensorStation>
      <SensorUUID>78aa6886-c32b-4fb0-b207-bb634e076f03</SensorUUID>
      <Operator>407</Operator>
      <CityCode>10005</CityCode>
      <TownCode>1000513</TownCode>
      <SensorName>中山高速公路下</SensorName>
      <Address>中山高速公路下(涵洞)</Address>
      <Point>
        <Latitude>24.4174235</Latitude>
        <Longitude>120.774755</Longitude>
      </Point>
      <SensorType>壓力式</SensorType>
    </FHYFloodSensorStation>
    <FHYFloodSensorStation>
      <SensorUUID>a3e09358-727b-43f2-b64e-87394a4c75c1</SensorUUID>
      <Operator>415</Operator>
      <CityCode>67</CityCode>
      <TownCode>6700700</TownCode>
      <SensorName>永安宮前(編號247)</SensorName>
      <Address>埤頭里110號</Address>
      <Point>
        <Latitude>23.196039</Latitude>
        <Longitude>120.227908</Longitude>
      </Point>
      <SensorType>壓力式</SensorType>
    </FHYFloodSensorStation>
    <FHYFloodSensorStation>
      <SensorUUID>9903f586-ea07-4bb2-96c7-660cc1f14374</SensorUUID>
      <Operator>408</Operator>
      <CityCode>66</CityCode>
      <TownCode>6602600</TownCode>
      <SensorName>五福路821號</SensorName>
      <Address>五福路821號</Address>
      <Point>
        <Latitude>24.086443</Latitude>
        <Longitude>120.650059</Longitude>
      </Point>
      <SensorType>壓力式</SensorType>
    </FHYFloodSensorStation>
    <FHYFloodSensorStation>
      <SensorUUID>3dd73436-cf69-422a-8352-75d35beb1132</SensorUUID>
      <Operator>403</Operator>
      <CityCode>65</CityCode>
      <TownCode>6501700</TownCode>
      <SensorName>仁愛路二段186號</SensorName>
      <Address>仁愛路二段186號</Address>
      <Point>
        <Latitude>25.073879</Latitude>
        <Longitude>121.380643</Longitude>
      </Point>
      <SensorType>壓力式</SensorType>
    </FHYFloodSensorStation>
    <FHYFloodSensorStation>
      <SensorUUID>d6af67ca-c97f-4b9b-8c43-9869fc886c25</SensorUUID>
      <Operator>403</Operator>
      <CityCode>65</CityCode>
      <TownCode>6500800</TownCode>
      <SensorName>鶯桃路509號</SensorName>
      <Address>鶯桃路509號</Address>
      <Point>
        <Latitude>24.966937</Latitude>
        <Longitude>121.331501</Longitude>
      </Point>
      <SensorType>壓力式</SensorType>
    </FHYFloodSensorStation>
    <FHYFloodSensorStation>
      <SensorUUID>996702db-00b0-48fb-a75c-59a0a1dac7dc</SensorUUID>
      <Operator>414</Operator>
      <CityCode>10010</CityCode>
      <TownCode>1001009</TownCode>
      <SensorName>副瀨村新結庄</SensorName>
      <Address>寶港宮附近</Address>
      <Point>
        <Latitude>23.48936</Latitude>
        <Longitude>120.15658</Longitude>
      </Point>
      <SensorType>壓力式</SensorType>
    </FHYFloodSensorStation>
    <FHYFloodSensorStation>
      <SensorUUID>ea4bcd7a-eaf4-4836-88e6-764bd425615e</SensorUUID>
      <Operator>408</Operator>
      <CityCode>66</CityCode>
      <TownCode>6602700</TownCode>
      <SensorName>中山路二段30號</SensorName>
      <Address>中山路二段30號</Address>
      <Point>
        <Latitude>24.1457</Latitude>
        <Longitude>120.7344</Longitude>
      </Point>
      <SensorType>壓力式</SensorType>
    </FHYFloodSensorStation>
    <FHYFloodSensorStation>
      <SensorUUID>8ed0d48e-430e-457c-b854-e83d9d6daebb</SensorUUID>
      <Operator>404</Operator>
      <CityCode>68</CityCode>
      <TownCode>6800100</TownCode>
      <SensorName>民光東路、福元街口</SensorName>
      <Address>民光東路、福元街口</Address>
      <Point>
        <Latitude>25.006747</Latitude>
        <Longitude>121.31748</Longitude>
      </Point>
      <SensorType>壓力式</SensorType>
    </FHYFloodSensorStation>
    <FHYFloodSensorStation>
      <SensorUUID>bded4041-1b94-428f-af2d-6940cdfe1311</SensorUUID>
      <Operator>405</Operator>
      <CityCode>10018</CityCode>
      <TownCode>1001803</TownCode>
      <SensorName>海山地下道</SensorName>
      <Address>海山地下道</Address>
      <Point>
        <Latitude>24.7594653</Latitude>
        <Longitude>120.9125464</Longitude>
      </Point>
      <SensorType>壓力式</SensorType>
    </FHYFloodSensorStation>
    <FHYFloodSensorStation>
      <SensorUUID>584af5e0-1085-4bd8-b305-1d40c2a4e8a6</SensorUUID>
      <Operator>411</Operator>
      <CityCode>10007</CityCode>
      <TownCode>1000720</TownCode>
      <SensorName>北平里1</SensorName>
      <Address>二溪路二段1巷26號</Address>
      <Point>
        <Latitude>23.9150976</Latitude>
        <Longitude>120.3796381</Longitude>
      </Point>
      <SensorType>壓力式</SensorType>
    </FHYFloodSensorStation>
    <FHYFloodSensorStation>
      <SensorUUID>760f9718-d501-48e9-929d-6ea484ff0430</SensorUUID>
      <Operator>5</Operator>
      <CityCode>10009</CityCode>
      <TownCode>1000908</TownCode>
      <SensorName>大埤豐田村太豐汽車保養廠(108P026)</SensorName>
      <Address>豐田村太豐汽車保養廠</Address>
      <Point>
        <Latitude>23.664006</Latitude>
        <Longitude>120.468559</Longitude>
      </Point>
      <SensorType>壓力式</SensorType>
    </FHYFloodSensorStation>
    <FHYFloodSensorStation>
      <SensorUUID>5ea0ee71-f783-4c48-9a66-199d9ad9da92</SensorUUID>
      <Operator>405</Operator>
      <CityCode>10018</CityCode>
      <TownCode>1001801</TownCode>
      <SensorName>仁義路與文化街口</SensorName>
      <Address>仁義路與文化街口</Address>
      <Point>
        <Latitude>24.8055769</Latitude>
        <Longitude>120.9712412</Longitude>
      </Point>
      <SensorType>壓力式</SensorType>
    </FHYFloodSensorStation>
    <FHYFloodSensorStation>
      <SensorUUID>8d192c8e-b72b-4e3f-bbab-f62a2e17f925</SensorUUID>
      <Operator>404</Operator>
      <CityCode>68</CityCode>
      <TownCode>6800200</TownCode>
      <SensorName>士校大池-1</SensorName>
      <Address>士校大池-1</Address>
      <Point>
        <Latitude>24.940266</Latitude>
        <Longitude>121.256424</Longitude>
      </Point>
      <SensorType>壓力式</SensorType>
    </FHYFloodSensorStation>
    <FHYFloodSensorStation>
      <SensorUUID>13c6c7a1-b9e7-417c-befe-1da04453e128</SensorUUID>
      <Operator>404</Operator>
      <CityCode>68</CityCode>
      <TownCode>6800500</TownCode>
      <SensorName>大華北街78-1號</SensorName>
      <Address>大華北街78-1號</Address>
      <Point>
        <Latitude>25.038739</Latitude>
        <Longitude>121.249349</Longitude>
      </Point>
      <SensorType>壓力式</SensorType>
    </FHYFloodSensorStation>
    <FHYFloodSensorStation>
      <SensorUUID>3fa6ca0f-c9d9-438f-aa2e-f8ea0645ee30</SensorUUID>
      <Operator>411</Operator>
      <CityCode>10007</CityCode>
      <TownCode>1000701</TownCode>
      <SensorName>舊社村1</SensorName>
      <Address>彰南路六段131號</Address>
      <Point>
        <Latitude>24.0543356</Latitude>
        <Longitude>120.6198664</Longitude>
      </Point>
      <SensorType>壓力式</SensorType>
    </FHYFloodSensorStation>
    <FHYFloodSensorStation>
      <SensorUUID>57b704cb-6ab6-4354-95be-ff218ec737d3</SensorUUID>
      <Operator>415</Operator>
      <CityCode>67</CityCode>
      <TownCode>6703300</TownCode>
      <SensorName>萬皇宮旁(編號181)</SensorName>
      <Address>喜南里喜樹路222巷</Address>
      <Point>
        <Latitude>22.941239</Latitude>
        <Longitude>120.177656</Longitude>
      </Point>
      <SensorType>壓力式</SensorType>
    </FHYFloodSensorStation>
    <FHYFloodSensorStation>
      <SensorUUID>e900ea84-b66c-4485-8765-1563283177b2</SensorUUID>
      <Operator>405</Operator>
      <CityCode>10018</CityCode>
      <TownCode>1001801</TownCode>
      <SensorName>振興一街145號</SensorName>
      <Address>振興一街145號</Address>
      <Point>
        <Latitude>24.795097</Latitude>
        <Longitude>120.9597677</Longitude>
      </Point>
      <SensorType>壓力式</SensorType>
    </FHYFloodSensorStation>
    <FHYFloodSensorStation>
      <SensorUUID>fcd04864-7eae-4f38-8628-9f2caedc17bd</SensorUUID>
      <Operator>417</Operator>
      <CityCode>64</CityCode>
      <TownCode>6401600</TownCode>
      <SensorName>大新路與大正街交口</SensorName>
      <Address>大新路與大正街交口</Address>
      <Point>
        <Latitude>22.725101</Latitude>
        <Longitude>120.349027</Longitude>
      </Point>
      <SensorType>壓力式</SensorType>
    </FHYFloodSensorStation>
    <FHYFloodSensorStation>
      <SensorUUID>8efbb912-eebf-46f9-9aee-a97c89417652</SensorUUID>
      <Operator>414</Operator>
      <CityCode>10010</CityCode>
      <TownCode>1001005</TownCode>
      <SensorName>雙福村雙福社區(CYC138)</SensorName>
      <Address>雙福村雙福社區</Address>
      <Point>
        <Latitude>23.5343149</Latitude>
        <Longitude>120.4425801</Longitude>
      </Point>
      <SensorType>壓力式</SensorType>
    </FHYFloodSensorStation>
    <FHYFloodSensorStation>
      <SensorUUID>4ae89a98-6df2-425b-836c-dae8c576825b</SensorUUID>
      <Operator>412</Operator>
      <CityCode>10009</CityCode>
      <TownCode>1000916</TownCode>
      <SensorName>溪頂村_村落1</SensorName>
      <Address>溪頂村_183-1號</Address>
      <Point>
        <Latitude>23.6868755</Latitude>
        <Longitude>120.1857197</Longitude>
      </Point>
      <SensorType>壓力式</SensorType>
    </FHYFloodSensorStation>
    <FHYFloodSensorStation>
      <SensorUUID>7f444d3c-a2cf-47f2-9553-8a5439ec850a</SensorUUID>
      <Operator>420</Operator>
      <CityCode>10002</CityCode>
      <TownCode>1000206</TownCode>
      <SensorName>後埤橋附近</SensorName>
      <Address>後埤橋附近</Address>
      <Point>
        <Latitude>24.7492282</Latitude>
        <Longitude>121.8145465</Longitude>
      </Point>
      <SensorType>壓力式</SensorType>
    </FHYFloodSensorStation>
    <FHYFloodSensorStation>
      <SensorUUID>becad655-bc74-4c7b-8f5e-29f2aa0c75b9</SensorUUID>
      <Operator>415</Operator>
      <CityCode>67</CityCode>
      <TownCode>6703500</TownCode>
      <SensorName>海佃路388巷6弄79號後方(編號44)</SensorName>
      <Address>海佃路388巷6弄79號後方</Address>
      <Point>
        <Latitude>23.063871</Latitude>
        <Longitude>120.179136</Longitude>
      </Point>
      <SensorType>壓力式</SensorType>
    </FHYFloodSensorStation>
    <FHYFloodSensorStation>
      <SensorUUID>1a1737af-e6de-484f-af16-a6dd1cdd86c9</SensorUUID>
      <Operator>408</Operator>
      <CityCode>66</CityCode>
      <TownCode>6601500</TownCode>
      <SensorName>中山路123號</SensorName>
      <Address>中山路123號</Address>
      <Point>
        <Latitude>24.306739</Latitude>
        <Longitude>120.712621</Longitude>
      </Point>
      <SensorType>壓力式</SensorType>
    </FHYFloodSensorStation>
    <FHYFloodSensorStation>
      <SensorUUID>a4e8d6e4-e92b-4a2d-9b09-df989b8d2d8e</SensorUUID>
      <Operator>414</Operator>
      <CityCode>10010</CityCode>
      <TownCode>1001008</TownCode>
      <SensorName>六腳鄉崩山村</SensorName>
      <Address>崩山村12號旁</Address>
      <Point>
        <Latitude>23.50381</Latitude>
        <Longitude>120.22646</Longitude>
      </Point>
      <SensorType>壓力式</SensorType>
    </FHYFloodSensorStation>
    <FHYFloodSensorStation>
      <SensorUUID>27b31385-e760-4f82-b9b9-b411cb95db85</SensorUUID>
      <Operator>415</Operator>
      <CityCode>67</CityCode>
      <TownCode>6703100</TownCode>
      <SensorName>永華路與永大一路口(編號128)</SensorName>
      <Address>永華路</Address>
      <Point>
        <Latitude>23.01722</Latitude>
        <Longitude>120.25772</Longitude>
      </Point>
      <SensorType>壓力式</SensorType>
    </FHYFloodSensorStation>
    <FHYFloodSensorStation>
      <SensorUUID>9627c44b-96e9-4732-8908-2ce8c78beac1</SensorUUID>
      <Operator>408</Operator>
      <CityCode>66</CityCode>
      <TownCode>6602200</TownCode>
      <SensorName>福安路38號</SensorName>
      <Address>福安路38號</Address>
      <Point>
        <Latitude>24.348596</Latitude>
        <Longitude>120.608164</Longitude>
      </Point>
      <SensorType>壓力式</SensorType>
    </FHYFloodSensorStation>
    <FHYFloodSensorStation>
      <SensorUUID>bd270e0c-d831-488a-9537-dce55560fd1f</SensorUUID>
      <Operator>417</Operator>
      <CityCode>64</CityCode>
      <TownCode>6400300</TownCode>
      <SensorName>文寧街</SensorName>
      <Address>文寧街</Address>
      <Point>
        <Latitude>22.67994</Latitude>
        <Longitude>120.30188</Longitude>
      </Point>
      <SensorType>壓力式</SensorType>
    </FHYFloodSensorStation>
    <FHYFloodSensorStation>
      <SensorUUID>40c566f5-7433-4ffa-9d4a-1ca3bc01a291</SensorUUID>
      <Operator>408</Operator>
      <CityCode>66</CityCode>
      <TownCode>6602700</TownCode>
      <SensorName>振福路13號</SensorName>
      <Address>振福路13號</Address>
      <Point>
        <Latitude>24.146058</Latitude>
        <Longitude>120.701312</Longitude>
      </Point>
      <SensorType>壓力式</SensorType>
    </FHYFloodSensorStation>
    <FHYFloodSensorStation>
      <SensorUUID>7ff6cc60-e08f-401c-a7a1-6ed29fd95581</SensorUUID>
      <Operator>408</Operator>
      <CityCode>66</CityCode>
      <TownCode>6602700</TownCode>
      <SensorName>光明路61號</SensorName>
      <Address>光明路61號</Address>
      <Point>
        <Latitude>24.111337</Latitude>
        <Longitude>120.730743</Longitude>
      </Point>
      <SensorType>壓力式</SensorType>
    </FHYFloodSensorStation>
    <FHYFloodSensorStation>
      <SensorUUID>8c9f95b4-1afb-43e7-a7ce-444dd595422c</SensorUUID>
      <Operator>417</Operator>
      <CityCode>64</CityCode>
      <TownCode>6400500</TownCode>
      <SensorName>黃興路455巷與皓東路246巷</SensorName>
      <Address>黃興路455巷與皓東路246巷</Address>
      <Point>
        <Latitude>22.651</Latitude>
        <Longitude>120.33589</Longitude>
      </Point>
      <SensorType>壓力式</SensorType>
    </FHYFloodSensorStation>
    <FHYFloodSensorStation>
      <SensorUUID>0c4985b2-05bd-4c96-ab56-fc23e1a52f6b</SensorUUID>
      <Operator>407</Operator>
      <CityCode>10005</CityCode>
      <TownCode>1000503</TownCode>
      <SensorName>平元里南和路</SensorName>
      <Address>平元里南和路一段一巷五鄰13之二號</Address>
      <Point>
        <Latitude>24.486933</Latitude>
        <Longitude>120.6816789</Longitude>
      </Point>
      <SensorType>壓力式</SensorType>
    </FHYFloodSensorStation>
    <FHYFloodSensorStation>
      <SensorUUID>4bbfec5b-3427-4948-8d69-1ded389fb566</SensorUUID>
      <Operator>415</Operator>
      <CityCode>67</CityCode>
      <TownCode>6701500</TownCode>
      <SensorName>樹林社區活動中心(編號75)</SensorName>
      <Address>樹林社區活動中心</Address>
      <Point>
        <Latitude>23.114161</Latitude>
        <Longitude>120.156716</Longitude>
      </Point>
      <SensorType>壓力式</SensorType>
    </FHYFloodSensorStation>
    <FHYFloodSensorStation>
      <SensorUUID>13a92eac-2aef-453f-80f4-76bc944d4f3a</SensorUUID>
      <Operator>414</Operator>
      <CityCode>10010</CityCode>
      <TownCode>1001003</TownCode>
      <SensorName>好美里</SensorName>
      <Address>太子宮旁</Address>
      <Point>
        <Latitude>23.33774</Latitude>
        <Longitude>120.13824</Longitude>
      </Point>
      <SensorType>壓力式</SensorType>
    </FHYFloodSensorStation>
    <FHYFloodSensorStation>
      <SensorUUID>53450b77-e394-4ab5-96c5-31b61e0160f1</SensorUUID>
      <Operator>403</Operator>
      <CityCode>65</CityCode>
      <TownCode>6500400</TownCode>
      <SensorName>復興商工</SensorName>
      <Address>秀朗路一段186號</Address>
      <Point>
        <Latitude>25.003522</Latitude>
        <Longitude>121.519255</Longitude>
      </Point>
      <SensorType>壓力式</SensorType>
    </FHYFloodSensorStation>
    <FHYFloodSensorStation>
      <SensorUUID>d434317b-3ac3-4e23-8735-14ab9c7a54d3</SensorUUID>
      <Operator>401</Operator>
      <CityCode>10017</CityCode>
      <TownCode>1001704</TownCode>
      <SensorName>仁一路107巷</SensorName>
      <Address>仁一路107巷15號</Address>
      <Point>
        <Latitude>25.127143</Latitude>
        <Longitude>121.753172</Longitude>
      </Point>
      <SensorType>壓力式</SensorType>
    </FHYFloodSensorStation>
    <FHYFloodSensorStation>
      <SensorUUID>9ca180bc-4fb8-4b56-abc6-247b72dc0bd1</SensorUUID>
      <Operator>412</Operator>
      <CityCode>10009</CityCode>
      <TownCode>1000911</TownCode>
      <SensorName>大義村_村落</SensorName>
      <Address>大義村_後庄1號橋</Address>
      <Point>
        <Latitude>23.788417</Latitude>
        <Longitude>120.400547</Longitude>
      </Point>
      <SensorType>壓力式</SensorType>
    </FHYFloodSensorStation>
    <FHYFloodSensorStation>
      <SensorUUID>444e8aea-11be-4430-943d-f6b511180661</SensorUUID>
      <Operator>401</Operator>
      <CityCode>10017</CityCode>
      <TownCode>1001707</TownCode>
      <SensorName>矯正署基隆看守所</SensorName>
      <Address>崇法街64號</Address>
      <Point>
        <Latitude>25.129419</Latitude>
        <Longitude>121.764924</Longitude>
      </Point>
      <SensorType>壓力式</SensorType>
    </FHYFloodSensorStation>
    <FHYFloodSensorStation>
      <SensorUUID>6a912734-b00e-4912-a1f7-bd3c85aa1b90</SensorUUID>
      <Operator>412</Operator>
      <CityCode>10009</CityCode>
      <TownCode>1000920</TownCode>
      <SensorName>溪墘村_雲154</SensorName>
      <Address>溪墘村_雲163與雲154交叉口</Address>
      <Point>
        <Latitude>23.553409</Latitude>
        <Longitude>120.268755</Longitude>
      </Point>
      <SensorType>壓力式</SensorType>
    </FHYFloodSensorStation>
    <FHYFloodSensorStation>
      <SensorUUID>f1216be0-0f73-46a9-b638-3424ad741653</SensorUUID>
      <Operator>5</Operator>
      <CityCode>10009</CityCode>
      <TownCode>1000916</TownCode>
      <SensorName>永豐村明德寺(108P004)</SensorName>
      <Address>和豐村明德寺</Address>
      <Point>
        <Latitude>23.7242309</Latitude>
        <Longitude>120.2113566</Longitude>
      </Point>
      <SensorType>壓力式</SensorType>
    </FHYFloodSensorStation>
    <FHYFloodSensorStation>
      <SensorUUID>8a088126-b3fb-40f0-9d88-a7476b7499c2</SensorUUID>
      <Operator>415</Operator>
      <CityCode>67</CityCode>
      <TownCode>6703500</TownCode>
      <SensorName>保安宮前(編號158)</SensorName>
      <Address>保安宮前</Address>
      <Point>
        <Latitude>23.05796</Latitude>
        <Longitude>120.18911</Longitude>
      </Point>
      <SensorType>壓力式</SensorType>
    </FHYFloodSensorStation>
    <FHYFloodSensorStation>
      <SensorUUID>4f7f2468-4553-4c80-835e-bc8261474143</SensorUUID>
      <Operator>415</Operator>
      <CityCode>67</CityCode>
      <TownCode>6702200</TownCode>
      <SensorName>184牛稠埔段(編號96)</SensorName>
      <Address>184牛稠埔段</Address>
      <Point>
        <Latitude>23.096221</Latitude>
        <Longitude>120.373799</Longitude>
      </Point>
      <SensorType>壓力式</SensorType>
    </FHYFloodSensorStation>
    <FHYFloodSensorStation>
      <SensorUUID>7218c55a-c9c2-4bd3-94cb-f3216b634c44</SensorUUID>
      <Operator>408</Operator>
      <CityCode>66</CityCode>
      <TownCode>6600200</TownCode>
      <SensorName>十甲路26巷6號對面(國農宮)</SensorName>
      <Address>十甲路26巷6號對面(國農宮)</Address>
      <Point>
        <Latitude>24.144254</Latitude>
        <Longitude>120.695596</Longitude>
      </Point>
      <SensorType>壓力式</SensorType>
    </FHYFloodSensorStation>
    <FHYFloodSensorStation>
      <SensorUUID>bb6620d6-2070-42b7-967d-99aab97c6c84</SensorUUID>
      <Operator>408</Operator>
      <CityCode>66</CityCode>
      <TownCode>6601900</TownCode>
      <SensorName>永源里東山街</SensorName>
      <Address>永源里東山街88之1號門口</Address>
      <Point>
        <Latitude>24.217387</Latitude>
        <Longitude>120.795901</Longitude>
      </Point>
      <SensorType>壓力式</SensorType>
    </FHYFloodSensorStation>
    <FHYFloodSensorStation>
      <SensorUUID>965df70a-5a0a-44cb-b702-95e94d5553b5</SensorUUID>
      <Operator>408</Operator>
      <CityCode>66</CityCode>
      <TownCode>6602800</TownCode>
      <SensorName>草堤路158巷與草堤路交叉口</SensorName>
      <Address>草堤路158巷與草堤路交叉口</Address>
      <Point>
        <Latitude>24.082458</Latitude>
        <Longitude>120.675343</Longitude>
      </Point>
      <SensorType>壓力式</SensorType>
    </FHYFloodSensorStation>
    <FHYFloodSensorStation>
      <SensorUUID>ab19dade-12b5-45ed-aae6-874bdb448498</SensorUUID>
      <Operator>405</Operator>
      <CityCode>10018</CityCode>
      <TownCode>1001801</TownCode>
      <SensorName>草湖街(花園橋)</SensorName>
      <Address>草湖街(花園橋)</Address>
      <Point>
        <Latitude>24.7870453</Latitude>
        <Longitude>120.9641591</Longitude>
      </Point>
      <SensorType>壓力式</SensorType>
    </FHYFloodSensorStation>
    <FHYFloodSensorStation>
      <SensorUUID>c78cff41-6abc-45b9-a955-1a7cca809263</SensorUUID>
      <Operator>411</Operator>
      <CityCode>10007</CityCode>
      <TownCode>1000711</TownCode>
      <SensorName>四塊厝排水</SensorName>
      <Address>四塊厝排水</Address>
      <Point>
        <Latitude>23.9678243</Latitude>
        <Longitude>120.488929</Longitude>
      </Point>
      <SensorType>壓力式</SensorType>
    </FHYFloodSensorStation>
    <FHYFloodSensorStation>
      <SensorUUID>1e1fa97f-8938-4cd2-9a36-b275b93e59fd</SensorUUID>
      <Operator>408</Operator>
      <CityCode>66</CityCode>
      <TownCode>6600300</TownCode>
      <SensorName>復興路二段與文林街交叉口(四育國中)</SensorName>
      <Address>復興路二段與文林街交叉口(四育國中)</Address>
      <Point>
        <Latitude>24.126152</Latitude>
        <Longitude>120.664912</Longitude>
      </Point>
      <SensorType>壓力式</SensorType>
    </FHYFloodSensorStation>
    <FHYFloodSensorStation>
      <SensorUUID>9ac7d241-242f-4ecf-9399-366d9826b099</SensorUUID>
      <Operator>406</Operator>
      <CityCode>10004</CityCode>
      <TownCode>1000401</TownCode>
      <SensorName>中正西路1742號</SensorName>
      <Address>中正西路1742號</Address>
      <Point>
        <Latitude>24.841899</Latitude>
        <Longitude>120.95507</Longitude>
      </Point>
      <SensorType>壓力式</SensorType>
    </FHYFloodSensorStation>
    <FHYFloodSensorStation>
      <SensorUUID>7f3866e7-271e-4f0f-a998-03cc80490f16</SensorUUID>
      <Operator>408</Operator>
      <CityCode>66</CityCode>
      <TownCode>6602700</TownCode>
      <SensorName>太平六街57號</SensorName>
      <Address>太平六街57號</Address>
      <Point>
        <Latitude>24.120948</Latitude>
        <Longitude>120.722828</Longitude>
      </Point>
      <SensorType>壓力式</SensorType>
    </FHYFloodSensorStation>
    <FHYFloodSensorStation>
      <SensorUUID>8825e747-9cf8-4d82-a681-11cffed7600a</SensorUUID>
      <Operator>408</Operator>
      <CityCode>66</CityCode>
      <TownCode>6602300</TownCode>
      <SensorName>光華街(烏日啤酒廠)</SensorName>
      <Address>光華街(烏日啤酒廠)</Address>
      <Point>
        <Latitude>24.110587</Latitude>
        <Longitude>120.625233</Longitude>
      </Point>
      <SensorType>壓力式</SensorType>
    </FHYFloodSensorStation>
    <FHYFloodSensorStation>
      <SensorUUID>a05919d4-3f59-4079-afd3-86075777a8c4</SensorUUID>
      <Operator>401</Operator>
      <CityCode>10017</CityCode>
      <TownCode>1001705</TownCode>
      <SensorName>西定國小</SensorName>
      <Address>西定路225號</Address>
      <Point>
        <Latitude>25.1366017</Latitude>
        <Longitude>121.732605</Longitude>
      </Point>
      <SensorType>壓力式</SensorType>
    </FHYFloodSensorStation>
    <FHYFloodSensorStation>
      <SensorUUID>97db5369-c152-47a5-ad4f-941035b761d4</SensorUUID>
      <Operator>405</Operator>
      <CityCode>10018</CityCode>
      <TownCode>1001801</TownCode>
      <SensorName>振興地下道</SensorName>
      <Address>振興地下道</Address>
      <Point>
        <Latitude>24.7961544</Latitude>
        <Longitude>120.9607873</Longitude>
      </Point>
      <SensorType>壓力式</SensorType>
    </FHYFloodSensorStation>
    <FHYFloodSensorStation>
      <SensorUUID>970c63c0-1eae-4bb2-9e02-33f7d89f3f43</SensorUUID>
      <Operator>411</Operator>
      <CityCode>10007</CityCode>
      <TownCode>1000715</TownCode>
      <SensorName>羅厝村1</SensorName>
      <Address>羅厝村羅厝天主堂旁</Address>
      <Point>
        <Latitude>23.937097</Latitude>
        <Longitude>120.513578</Longitude>
      </Point>
      <SensorType>壓力式</SensorType>
    </FHYFloodSensorStation>
    <FHYFloodSensorStation>
      <SensorUUID>a2a2ea3d-9d25-420f-b471-cc603590c4e1</SensorUUID>
      <Operator>408</Operator>
      <CityCode>66</CityCode>
      <TownCode>6602800</TownCode>
      <SensorName>國中路十股巷109號</SensorName>
      <Address>國中路十股巷109號</Address>
      <Point>
        <Latitude>24.087914</Latitude>
        <Longitude>120.659577</Longitude>
      </Point>
      <SensorType>壓力式</SensorType>
    </FHYFloodSensorStation>
    <FHYFloodSensorStation>
      <SensorUUID>f75823bd-7c87-4935-a905-81d3868c5da1</SensorUUID>
      <Operator>412</Operator>
      <CityCode>10009</CityCode>
      <TownCode>1000920</TownCode>
      <SensorName>松西村_尼爾魔幻藝術</SensorName>
      <Address>尼爾魔幻藝術</Address>
      <Point>
        <Latitude>23.516394</Latitude>
        <Longitude>120.224772</Longitude>
      </Point>
      <SensorType>壓力式</SensorType>
    </FHYFloodSensorStation>
    <FHYFloodSensorStation>
      <SensorUUID>305bede7-1b72-45fc-b020-f8ff8181de3f</SensorUUID>
      <Operator>415</Operator>
      <CityCode>67</CityCode>
      <TownCode>6703700</TownCode>
      <SensorName>六合境清水寺(編號101)</SensorName>
      <Address>六合境清水寺</Address>
      <Point>
        <Latitude>22.99172</Latitude>
        <Longitude>120.20618</Longitude>
      </Point>
      <SensorType>壓力式</SensorType>
    </FHYFloodSensorStation>
    <FHYFloodSensorStation>
      <SensorUUID>de4bb640-f5bc-4ee7-b7ad-a887c3a33b37</SensorUUID>
      <Operator>420</Operator>
      <CityCode>10002</CityCode>
      <TownCode>1000203</TownCode>
      <SensorName>泉興巷涵洞（原71改點）</SensorName>
      <Address>泉興巷涵洞（原71改點）</Address>
      <Point>
        <Latitude>24.5947943</Latitude>
        <Longitude>121.8480999</Longitude>
      </Point>
      <SensorType>壓力式</SensorType>
    </FHYFloodSensorStation>
    <FHYFloodSensorStation>
      <SensorUUID>456c32e3-dcd1-4f93-b840-8b08c9a30e45</SensorUUID>
      <Operator>408</Operator>
      <CityCode>66</CityCode>
      <TownCode>6600500</TownCode>
      <SensorName>忠太園道71號</SensorName>
      <Address>忠太園道71號</Address>
      <Point>
        <Latitude>24.163562</Latitude>
        <Longitude>120.704076</Longitude>
      </Point>
      <SensorType>壓力式</SensorType>
    </FHYFloodSensorStation>
    <FHYFloodSensorStation>
      <SensorUUID>3d44228c-3cf7-473b-8300-c74fb09bb692</SensorUUID>
      <Operator>419</Operator>
      <CityCode>10013</CityCode>
      <TownCode>1001319</TownCode>
      <SensorName>山上湖胡椒蝦</SensorName>
      <Address>永和路19號</Address>
      <Point>
        <Latitude>22.45635</Latitude>
        <Longitude>120.5057</Longitude>
      </Point>
      <SensorType>壓力式</SensorType>
    </FHYFloodSensorStation>
    <FHYFloodSensorStation>
      <SensorUUID>413394e4-aa8a-48bc-aa1f-bce9ab3766b6</SensorUUID>
      <Operator>411</Operator>
      <CityCode>10007</CityCode>
      <TownCode>1000714</TownCode>
      <SensorName>太平村保玄宮</SensorName>
      <Address>好金路3-30號</Address>
      <Point>
        <Latitude>23.971585</Latitude>
        <Longitude>120.44241</Longitude>
      </Point>
      <SensorType>壓力式</SensorType>
    </FHYFloodSensorStation>
    <FHYFloodSensorStation>
      <SensorUUID>442c66bb-7b46-4682-8d33-4d97f280905c</SensorUUID>
      <Operator>420</Operator>
      <CityCode>10002</CityCode>
      <TownCode>1000205</TownCode>
      <SensorName>瑪僯路59-25號附近</SensorName>
      <Address>瑪僯路59-25號附近</Address>
      <Point>
        <Latitude>24.8004584</Latitude>
        <Longitude>121.7728006</Longitude>
      </Point>
      <SensorType>壓力式</SensorType>
    </FHYFloodSensorStation>
    <FHYFloodSensorStation>
      <SensorUUID>0fd8e0fd-5ed1-4515-aad6-5e180550f474</SensorUUID>
      <Operator>408</Operator>
      <CityCode>66</CityCode>
      <TownCode>6601900</TownCode>
      <SensorName>大南里中和街二段</SensorName>
      <Address>大南里中和街二段383巷34-36號</Address>
      <Point>
        <Latitude>24.2285</Latitude>
        <Longitude>120.8002</Longitude>
      </Point>
      <SensorType>壓力式</SensorType>
    </FHYFloodSensorStation>
    <FHYFloodSensorStation>
      <SensorUUID>c6c4ffc8-ae05-49fc-a749-cfd949a671e1</SensorUUID>
      <Operator>414</Operator>
      <CityCode>10010</CityCode>
      <TownCode>1001009</TownCode>
      <SensorName>猿樹村頂寮部落(CYC109)</SensorName>
      <Address>猿樹村頂寮部落</Address>
      <Point>
        <Latitude>23.46012</Latitude>
        <Longitude>120.150933</Longitude>
      </Point>
      <SensorType>壓力式</SensorType>
    </FHYFloodSensorStation>
    <FHYFloodSensorStation>
      <SensorUUID>f51d68f1-5239-4b40-9895-1f5c557b3f58</SensorUUID>
      <Operator>404</Operator>
      <CityCode>68</CityCode>
      <TownCode>6800200</TownCode>
      <SensorName>中山東路三段239號</SensorName>
      <Address>中山東路三段239號</Address>
      <Point>
        <Latitude>24.942048</Latitude>
        <Longitude>121.250328</Longitude>
      </Point>
      <SensorType>壓力式</SensorType>
    </FHYFloodSensorStation>
    <FHYFloodSensorStation>
      <SensorUUID>543f5687-410c-4f95-99be-3fc4c86de643</SensorUUID>
      <Operator>407</Operator>
      <CityCode>10005</CityCode>
      <TownCode>1000502</TownCode>
      <SensorName>中正里鎮苗47鄉道</SensorName>
      <Address>中正里鎮苗47鄉道</Address>
      <Point>
        <Latitude>24.4234207</Latitude>
        <Longitude>120.6623318</Longitude>
      </Point>
      <SensorType>壓力式</SensorType>
    </FHYFloodSensorStation>
    <FHYFloodSensorStation>
      <SensorUUID>b610dcb7-b4cd-465f-9bd6-7fdb0e2b29fa</SensorUUID>
      <Operator>415</Operator>
      <CityCode>67</CityCode>
      <TownCode>6703400</TownCode>
      <SensorName>文賢路1180巷15號前(編號36)</SensorName>
      <Address>文賢路1180巷15號前</Address>
      <Point>
        <Latitude>23.017678</Latitude>
        <Longitude>120.193901</Longitude>
      </Point>
      <SensorType>壓力式</SensorType>
    </FHYFloodSensorStation>
    <FHYFloodSensorStation>
      <SensorUUID>b18a1099-0d83-4770-83d3-66035798d099</SensorUUID>
      <Operator>414</Operator>
      <CityCode>10010</CityCode>
      <TownCode>1001008</TownCode>
      <SensorName>古林村</SensorName>
      <Address>166縣道</Address>
      <Point>
        <Latitude>23.48574</Latitude>
        <Longitude>120.22261</Longitude>
      </Point>
      <SensorType>壓力式</SensorType>
    </FHYFloodSensorStation>
    <FHYFloodSensorStation>
      <SensorUUID>5eb3eda5-d0e2-4d1e-8a93-d6f75ae88c45</SensorUUID>
      <Operator>417</Operator>
      <CityCode>64</CityCode>
      <TownCode>6401800</TownCode>
      <SensorName>中正路400巷</SensorName>
      <Address>中正路400巷</Address>
      <Point>
        <Latitude>22.66942</Latitude>
        <Longitude>120.36222</Longitude>
      </Point>
      <SensorType>壓力式</SensorType>
    </FHYFloodSensorStation>
    <FHYFloodSensorStation>
      <SensorUUID>db0e39a9-467c-4b1d-84f3-796b9c2929ca</SensorUUID>
      <Operator>403</Operator>
      <CityCode>65</CityCode>
      <TownCode>6501200</TownCode>
      <SensorName>瑞芳街40號</SensorName>
      <Address>瑞芳街40號</Address>
      <Point>
        <Latitude>25.109662</Latitude>
        <Longitude>121.805856</Longitude>
      </Point>
      <SensorType>壓力式</SensorType>
    </FHYFloodSensorStation>
    <FHYFloodSensorStation>
      <SensorUUID>61c0488b-c064-4abb-8056-5f1447e5bb17</SensorUUID>
      <Operator>407</Operator>
      <CityCode>10005</CityCode>
      <TownCode>1000506</TownCode>
      <SensorName>溫掘溝滯洪池旁</SensorName>
      <Address>溫掘溝滯洪池旁</Address>
      <Point>
        <Latitude>24.6311455</Latitude>
        <Longitude>120.7610147</Longitude>
      </Point>
      <SensorType>壓力式</SensorType>
    </FHYFloodSensorStation>
    <FHYFloodSensorStation>
      <SensorUUID>3f5333cf-4783-4336-baae-a93645ad2fb3</SensorUUID>
      <Operator>415</Operator>
      <CityCode>67</CityCode>
      <TownCode>6702000</TownCode>
      <SensorName>虎山道路(編號220)</SensorName>
      <Address>虎山道路</Address>
      <Point>
        <Latitude>23.070739</Latitude>
        <Longitude>120.323854</Longitude>
      </Point>
      <SensorType>壓力式</SensorType>
    </FHYFloodSensorStation>
    <FHYFloodSensorStation>
      <SensorUUID>a95c3c82-3fe0-4df0-b190-3cd8bdf6934e</SensorUUID>
      <Operator>421</Operator>
      <CityCode>10015</CityCode>
      <TownCode>1001505</TownCode>
      <SensorName>干城二街</SensorName>
      <Address>干城二街</Address>
      <Point>
        <Latitude>23.947637</Latitude>
        <Longitude>121.54182</Longitude>
      </Point>
      <SensorType>壓力式</SensorType>
    </FHYFloodSensorStation>
    <FHYFloodSensorStation>
      <SensorUUID>b304141b-90b3-45b8-8a81-1a1abf3301df</SensorUUID>
      <Operator>405</Operator>
      <CityCode>10018</CityCode>
      <TownCode>1001803</TownCode>
      <SensorName>經國路三段2巷</SensorName>
      <Address>經國路三段2巷</Address>
      <Point>
        <Latitude>24.8004851</Latitude>
        <Longitude>120.9532633</Longitude>
      </Point>
      <SensorType>壓力式</SensorType>
    </FHYFloodSensorStation>
    <FHYFloodSensorStation>
      <SensorUUID>355a1482-f4ad-421a-9e1f-63f03cb849b8</SensorUUID>
      <Operator>404</Operator>
      <CityCode>68</CityCode>
      <TownCode>6800200</TownCode>
      <SensorName>龍岡路二段126號</SensorName>
      <Address>龍岡路二段126號</Address>
      <Point>
        <Latitude>24.945187</Latitude>
        <Longitude>121.229331</Longitude>
      </Point>
      <SensorType>壓力式</SensorType>
    </FHYFloodSensorStation>
    <FHYFloodSensorStation>
      <SensorUUID>b386ecc1-532c-431b-8c82-dae7f964a2d8</SensorUUID>
      <Operator>412</Operator>
      <CityCode>10009</CityCode>
      <TownCode>1000909</TownCode>
      <SensorName>興桐村_福天宮</SensorName>
      <Address>福天宮</Address>
      <Point>
        <Latitude>23.769602</Latitude>
        <Longitude>120.5037573</Longitude>
      </Point>
      <SensorType>壓力式</SensorType>
    </FHYFloodSensorStation>
    <FHYFloodSensorStation>
      <SensorUUID>db4af452-4277-4a50-8014-9986bdd4414b</SensorUUID>
      <Operator>414</Operator>
      <CityCode>10010</CityCode>
      <TownCode>1001007</TownCode>
      <SensorName>海瀛村過港社區(CYC131)</SensorName>
      <Address>海瀛村過港社區</Address>
      <Point>
        <Latitude>23.5830918</Latitude>
        <Longitude>120.3636571</Longitude>
      </Point>
      <SensorType>壓力式</SensorType>
    </FHYFloodSensorStation>
    <FHYFloodSensorStation>
      <SensorUUID>638d6ace-22d1-4c9c-967b-9db28324e022</SensorUUID>
      <Operator>412</Operator>
      <CityCode>10009</CityCode>
      <TownCode>1000911</TownCode>
      <SensorName>楊賢村_楊和牧場</SensorName>
      <Address>楊和牧場</Address>
      <Point>
        <Latitude>23.8108094</Latitude>
        <Longitude>120.401968</Longitude>
      </Point>
      <SensorType>壓力式</SensorType>
    </FHYFloodSensorStation>
    <FHYFloodSensorStation>
      <SensorUUID>42aebb16-d670-4ac1-8329-6275d41c0e8d</SensorUUID>
      <Operator>403</Operator>
      <CityCode>65</CityCode>
      <TownCode>6501300</TownCode>
      <SensorName>金城路二段46巷18-9號</SensorName>
      <Address>金城路二段46巷18-9號</Address>
      <Point>
        <Latitude>24.9770535</Latitude>
        <Longitude>121.4525193</Longitude>
      </Point>
      <SensorType>壓力式</SensorType>
    </FHYFloodSensorStation>
    <FHYFloodSensorStation>
      <SensorUUID>543677ab-66f2-47d7-81ad-b42ced531615</SensorUUID>
      <Operator>417</Operator>
      <CityCode>64</CityCode>
      <TownCode>6402100</TownCode>
      <SensorName>樹科大-燕巢校區門口</SensorName>
      <Address>台22線樹德科技大學門口客運站旁交通標誌桿</Address>
      <Point>
        <Latitude>22.765076</Latitude>
        <Longitude>120.37543</Longitude>
      </Point>
      <SensorType>壓力式</SensorType>
    </FHYFloodSensorStation>
    <FHYFloodSensorStation>
      <SensorUUID>9d0d0280-9d33-46ba-9b5e-f7f14eec8546</SensorUUID>
      <Operator>5</Operator>
      <CityCode>10010</CityCode>
      <TownCode>1001009</TownCode>
      <SensorName>東石下揖村警察局朴子分局下揖派出所(108Q023)</SensorName>
      <Address>下揖村警察局朴子分局下揖派出所</Address>
      <Point>
        <Latitude>23.4870387</Latitude>
        <Longitude>120.1964358</Longitude>
      </Point>
      <SensorType>壓力式</SensorType>
    </FHYFloodSensorStation>
    <FHYFloodSensorStation>
      <SensorUUID>2aca48b7-2b59-49d0-8939-e5c9dfb382e4</SensorUUID>
      <Operator>404</Operator>
      <CityCode>68</CityCode>
      <TownCode>6800100</TownCode>
      <SensorName>民光東路、民有六街</SensorName>
      <Address>民光東路、民有六街</Address>
      <Point>
        <Latitude>25.00814</Latitude>
        <Longitude>121.318823</Longitude>
      </Point>
      <SensorType>壓力式</SensorType>
    </FHYFloodSensorStation>
    <FHYFloodSensorStation>
      <SensorUUID>428c048f-878c-447e-907c-e7588181eb5b</SensorUUID>
      <Operator>420</Operator>
      <CityCode>10002</CityCode>
      <TownCode>1000205</TownCode>
      <SensorName>水鹿咖啡與蘭田民宿附近</SensorName>
      <Address>水鹿咖啡與蘭田民宿附近</Address>
      <Point>
        <Latitude>24.8103492</Latitude>
        <Longitude>121.7998051</Longitude>
      </Point>
      <SensorType>壓力式</SensorType>
    </FHYFloodSensorStation>
    <FHYFloodSensorStation>
      <SensorUUID>a7eecccc-b72c-4bc0-ba2b-c55b69f980e8</SensorUUID>
      <Operator>5</Operator>
      <CityCode>10010</CityCode>
      <TownCode>1001007</TownCode>
      <SensorName>南崙村溪底寮(107Q002)</SensorName>
      <Address>嘉義縣新港鄉南崙村南崙村崙子177-5號附近</Address>
      <Point>
        <Latitude>23.581772</Latitude>
        <Longitude>120.343544</Longitude>
      </Point>
      <SensorType>超音波式</SensorType>
    </FHYFloodSensorStation>
    <FHYFloodSensorStation>
      <SensorUUID>bf45ac0e-a572-4c87-800e-be5d682db194</SensorUUID>
      <Operator>408</Operator>
      <CityCode>66</CityCode>
      <TownCode>6600100</TownCode>
      <SensorName>自由二路135號</SensorName>
      <Address>自由二路135號</Address>
      <Point>
        <Latitude>24.141931</Latitude>
        <Longitude>120.6814062</Longitude>
      </Point>
      <SensorType>壓力式</SensorType>
    </FHYFloodSensorStation>
    <FHYFloodSensorStation>
      <SensorUUID>0d810527-d6c7-4754-93ec-15939df757d0</SensorUUID>
      <Operator>414</Operator>
      <CityCode>10010</CityCode>
      <TownCode>1001007</TownCode>
      <SensorName>海瀛村海瀛社區(CYC132)</SensorName>
      <Address>海瀛村海瀛社區</Address>
      <Point>
        <Latitude>23.5752287</Latitude>
        <Longitude>120.3662411</Longitude>
      </Point>
      <SensorType>壓力式</SensorType>
    </FHYFloodSensorStation>
    <FHYFloodSensorStation>
      <SensorUUID>18f0a47f-693d-4012-85a2-9f938f1dae63</SensorUUID>
      <Operator>405</Operator>
      <CityCode>10018</CityCode>
      <TownCode>1001802</TownCode>
      <SensorName>中清路一段360號</SensorName>
      <Address>中清路一段360號</Address>
      <Point>
        <Latitude>24.8322828</Latitude>
        <Longitude>120.929965</Longitude>
      </Point>
      <SensorType>壓力式</SensorType>
    </FHYFloodSensorStation>
    <FHYFloodSensorStation>
      <SensorUUID>f95892fb-b7ad-45f0-9ed1-c221f02a1102</SensorUUID>
      <Operator>415</Operator>
      <CityCode>67</CityCode>
      <TownCode>6700500</TownCode>
      <SensorName>侯伯里三公府後方(編號186)</SensorName>
      <Address>侯伯里三公府後方</Address>
      <Point>
        <Latitude>23.370849</Latitude>
        <Longitude>120.364488</Longitude>
      </Point>
      <SensorType>壓力式</SensorType>
    </FHYFloodSensorStation>
    <FHYFloodSensorStation>
      <SensorUUID>d6ca240c-3704-4cc0-b545-10c16fc67544</SensorUUID>
      <Operator>411</Operator>
      <CityCode>10007</CityCode>
      <TownCode>1000715</TownCode>
      <SensorName>東門村2</SensorName>
      <Address>永坡路三段136號</Address>
      <Point>
        <Latitude>23.9470638</Latitude>
        <Longitude>120.5398808</Longitude>
      </Point>
      <SensorType>壓力式</SensorType>
    </FHYFloodSensorStation>
    <FHYFloodSensorStation>
      <SensorUUID>800d0ea2-9fd1-415b-8233-32bbbea5f3ca</SensorUUID>
      <Operator>408</Operator>
      <CityCode>66</CityCode>
      <TownCode>6600800</TownCode>
      <SensorName>軍功里軍福十九路</SensorName>
      <Address>軍功里軍福十九路18號</Address>
      <Point>
        <Latitude>24.180109</Latitude>
        <Longitude>120.721039</Longitude>
      </Point>
      <SensorType>壓力式</SensorType>
    </FHYFloodSensorStation>
    <FHYFloodSensorStation>
      <SensorUUID>301f6783-3afa-4de3-8f41-60f731ac40dc</SensorUUID>
      <Operator>5</Operator>
      <CityCode>10010</CityCode>
      <TownCode>1001003</TownCode>
      <SensorName>布袋龍江里卿雲廟(108Q050)</SensorName>
      <Address>龍江里卿雲廟</Address>
      <Point>
        <Latitude>23.385744</Latitude>
        <Longitude>120.1703483</Longitude>
      </Point>
      <SensorType>壓力式</SensorType>
    </FHYFloodSensorStation>
    <FHYFloodSensorStation>
      <SensorUUID>e8e0c072-4314-4ec2-91bd-b6651dd31ab0</SensorUUID>
      <Operator>405</Operator>
      <CityCode>10018</CityCode>
      <TownCode>1001803</TownCode>
      <SensorName>元培地下道</SensorName>
      <Address>元培地下道</Address>
      <Point>
        <Latitude>24.7877722</Latitude>
        <Longitude>120.9288448</Longitude>
      </Point>
      <SensorType>壓力式</SensorType>
    </FHYFloodSensorStation>
    <FHYFloodSensorStation>
      <SensorUUID>5f7d9f56-5aa1-4d4d-b411-42b6a1788a2f</SensorUUID>
      <Operator>420</Operator>
      <CityCode>10002</CityCode>
      <TownCode>1000206</TownCode>
      <SensorName>永美路二段142巷與古亭排水附近</SensorName>
      <Address>永美路二段142巷與古亭排水附近</Address>
      <Point>
        <Latitude>24.7817199</Latitude>
        <Longitude>121.8004716</Longitude>
      </Point>
      <SensorType>壓力式</SensorType>
    </FHYFloodSensorStation>
    <FHYFloodSensorStation>
      <SensorUUID>e4b1e63c-989d-4502-94fc-b66a02d81dc4</SensorUUID>
      <Operator>417</Operator>
      <CityCode>64</CityCode>
      <TownCode>6402900</TownCode>
      <SensorName>典寶里大舍南路403巷19號</SensorName>
      <Address>典寶里大舍南路403巷19號</Address>
      <Point>
        <Latitude>22.73867</Latitude>
        <Longitude>120.26564</Longitude>
      </Point>
      <SensorType>壓力式</SensorType>
    </FHYFloodSensorStation>
    <FHYFloodSensorStation>
      <SensorUUID>0e620727-5d60-42ab-a6ba-e9042817a3d9</SensorUUID>
      <Operator>408</Operator>
      <CityCode>66</CityCode>
      <TownCode>6600800</TownCode>
      <SensorName>松茂里遼寧路一段</SensorName>
      <Address>松茂里遼寧路一段580號</Address>
      <Point>
        <Latitude>24.1818771</Latitude>
        <Longitude>120.6963017</Longitude>
      </Point>
      <SensorType>壓力式</SensorType>
    </FHYFloodSensorStation>
    <FHYFloodSensorStation>
      <SensorUUID>02092f9b-8893-4619-ab2a-6fbd6a5cb9ed</SensorUUID>
      <Operator>408</Operator>
      <CityCode>66</CityCode>
      <TownCode>6602800</TownCode>
      <SensorName>日新路648號</SensorName>
      <Address>日新路648號</Address>
      <Point>
        <Latitude>24.1202</Latitude>
        <Longitude>120.692561</Longitude>
      </Point>
      <SensorType>壓力式</SensorType>
    </FHYFloodSensorStation>
    <FHYFloodSensorStation>
      <SensorUUID>16a2afb3-8da2-4f52-be0d-1672e718c407</SensorUUID>
      <Operator>415</Operator>
      <CityCode>67</CityCode>
      <TownCode>6702700</TownCode>
      <SensorName>二仁路一段104號(編號108)</SensorName>
      <Address>二行里台1線86快速道路北上機車迴轉道</Address>
      <Point>
        <Latitude>22.921576</Latitude>
        <Longitude>120.224656</Longitude>
      </Point>
      <SensorType>壓力式</SensorType>
    </FHYFloodSensorStation>
    <FHYFloodSensorStation>
      <SensorUUID>4ec359f2-96f3-415e-b5f2-92e99b0399b5</SensorUUID>
      <Operator>406</Operator>
      <CityCode>10004</CityCode>
      <TownCode>1000401</TownCode>
      <SensorName>福興地下道</SensorName>
      <Address>福興地下道</Address>
      <Point>
        <Latitude>24.827868</Latitude>
        <Longitude>121.001262</Longitude>
      </Point>
      <SensorType>壓力式</SensorType>
    </FHYFloodSensorStation>
    <FHYFloodSensorStation>
      <SensorUUID>59a3ac7f-764e-4833-8a9e-0e9ab522e626</SensorUUID>
      <Operator>414</Operator>
      <CityCode>10010</CityCode>
      <TownCode>1001010</TownCode>
      <SensorName>義竹鄉東光村東後寮(CYC117)</SensorName>
      <Address>東光村東後寮</Address>
      <Point>
        <Latitude>23.377767</Latitude>
        <Longitude>120.248062</Longitude>
      </Point>
      <SensorType>壓力式</SensorType>
    </FHYFloodSensorStation>
    <FHYFloodSensorStation>
      <SensorUUID>3c1ec664-a512-43f3-aee7-7703f408144e</SensorUUID>
      <Operator>414</Operator>
      <CityCode>10010</CityCode>
      <TownCode>1001012</TownCode>
      <SensorName>水上鄉內溪村民生社區(CYC127)</SensorName>
      <Address>內溪村民生社區</Address>
      <Point>
        <Latitude>23.441912</Latitude>
        <Longitude>120.433922</Longitude>
      </Point>
      <SensorType>壓力式</SensorType>
    </FHYFloodSensorStation>
    <FHYFloodSensorStation>
      <SensorUUID>a55b3f8d-da5a-466a-bb27-9b584b2f0a83</SensorUUID>
      <Operator>415</Operator>
      <CityCode>67</CityCode>
      <TownCode>6702700</TownCode>
      <SensorName>文山路149號前(編號105)</SensorName>
      <Address>文山路149號</Address>
      <Point>
        <Latitude>22.975524</Latitude>
        <Longitude>120.248012</Longitude>
      </Point>
      <SensorType>壓力式</SensorType>
    </FHYFloodSensorStation>
    <FHYFloodSensorStation>
      <SensorUUID>802ca7a7-34fc-40df-adc4-287491f98615</SensorUUID>
      <Operator>404</Operator>
      <CityCode>68</CityCode>
      <TownCode>6800100</TownCode>
      <SensorName>桃鶯路昆明路</SensorName>
      <Address>桃鶯路</Address>
      <Point>
        <Latitude>24.985966</Latitude>
        <Longitude>121.317951</Longitude>
      </Point>
      <SensorType>壓力式</SensorType>
    </FHYFloodSensorStation>
    <FHYFloodSensorStation>
      <SensorUUID>9c9bb824-182e-409b-8fb6-051d537eccdd</SensorUUID>
      <Operator>414</Operator>
      <CityCode>10010</CityCode>
      <TownCode>1001001</TownCode>
      <SensorName>安仁里頂港仔墘</SensorName>
      <Address>安仁里辦公室附近</Address>
      <Point>
        <Latitude>23.4423</Latitude>
        <Longitude>120.2955</Longitude>
      </Point>
      <SensorType>壓力式</SensorType>
    </FHYFloodSensorStation>
    <FHYFloodSensorStation>
      <SensorUUID>49bcd500-b788-4b38-a581-d97ef584ffa8</SensorUUID>
      <Operator>408</Operator>
      <CityCode>66</CityCode>
      <TownCode>6600200</TownCode>
      <SensorName>振興路375巷口</SensorName>
      <Address>振興路375巷口</Address>
      <Point>
        <Latitude>24.131552</Latitude>
        <Longitude>120.702504</Longitude>
      </Point>
      <SensorType>壓力式</SensorType>
    </FHYFloodSensorStation>
    <FHYFloodSensorStation>
      <SensorUUID>906ee83c-80d8-4aa2-a2ec-2ef19587573c</SensorUUID>
      <Operator>408</Operator>
      <CityCode>66</CityCode>
      <TownCode>6600100</TownCode>
      <SensorName>東協廣場</SensorName>
      <Address>東協廣場</Address>
      <Point>
        <Latitude>24.13906</Latitude>
        <Longitude>120.684195</Longitude>
      </Point>
      <SensorType>壓力式</SensorType>
    </FHYFloodSensorStation>
    <FHYFloodSensorStation>
      <SensorUUID>9c873e0a-2ba6-4a4d-9400-5672a08e5d66</SensorUUID>
      <Operator>415</Operator>
      <CityCode>67</CityCode>
      <TownCode>6703500</TownCode>
      <SensorName>朝皇宮前電杆(編號242)</SensorName>
      <Address>朝皇宮前電杆</Address>
      <Point>
        <Latitude>23.040378</Latitude>
        <Longitude>120.184176</Longitude>
      </Point>
      <SensorType>壓力式</SensorType>
    </FHYFloodSensorStation>
    <FHYFloodSensorStation>
      <SensorUUID>77c485fc-68fd-4366-9212-15abf5d438c8</SensorUUID>
      <Operator>412</Operator>
      <CityCode>10009</CityCode>
      <TownCode>1000912</TownCode>
      <SensorName>水尾村_村落</SensorName>
      <Address>水尾村_下街143號</Address>
      <Point>
        <Latitude>23.784013</Latitude>
        <Longitude>120.348228</Longitude>
      </Point>
      <SensorType>壓力式</SensorType>
    </FHYFloodSensorStation>
    <FHYFloodSensorStation>
      <SensorUUID>459dec2d-43b9-42bb-b2e6-0ef6380283ba</SensorUUID>
      <Operator>4</Operator>
      <CityCode>10007</CityCode>
      <TownCode>1000710</TownCode>
      <SensorName>山腳路</SensorName>
      <Address>鎮興里山腳路三段至二段</Address>
      <Point>
        <Latitude>23.9581</Latitude>
        <Longitude>120.602</Longitude>
      </Point>
      <SensorType>壓力式</SensorType>
    </FHYFloodSensorStation>
    <FHYFloodSensorStation>
      <SensorUUID>2ec626f7-0cdf-4884-bd6f-5260026bf9bd</SensorUUID>
      <Operator>415</Operator>
      <CityCode>67</CityCode>
      <TownCode>6702700</TownCode>
      <SensorName>台1線(保安路一段到二仁路之間)(編號104)</SensorName>
      <Address>台1線(保安路一段到二仁路之間)</Address>
      <Point>
        <Latitude>22.92328</Latitude>
        <Longitude>120.2238</Longitude>
      </Point>
      <SensorType>壓力式</SensorType>
    </FHYFloodSensorStation>
    <FHYFloodSensorStation>
      <SensorUUID>e9cf4707-d0a9-4a30-8ef6-b77ee5bbe7f1</SensorUUID>
      <Operator>408</Operator>
      <CityCode>66</CityCode>
      <TownCode>6600700</TownCode>
      <SensorName>春社里王田圳</SensorName>
      <Address>春社里王田圳</Address>
      <Point>
